[{
    "Identifiant": "33875",
    "Numéro S3IC": null,
    "Commune": "BUGNICOURT",
    "Site en activité": "Non",
    "Exploitation en eau": "Non",
    "Substances": null,
    "Produits": null,
    "Longitude": "3.145783",
    "Latitude": "50.297675",
    "Date de fin d'autorisation": null
},
{
    "Identifiant": "131434",
    "Numéro S3IC": null,
    "Commune": "CUSSAC-FORT-MEDOC",
    "Site en activité": "Non",
    "Exploitation en eau": "Non",
    "Substances": null,
    "Produits": null,
    "Longitude": "-0.750933863551419",
    "Latitude": "45.1207234212672",
    "Date de fin d'autorisation": null
},
{
    "Identifiant": "95979",
    "Numéro S3IC": null,
    "Commune": "GIRONDE-SUR-DROPT",
    "Site en activité": "Non",
    "Exploitation en eau": "Non",
    "Substances": "Argiles",
    "Produits": null,
    "Longitude": "-0.084078",
    "Latitude": "44.599798",
    "Date de fin d'autorisation": null
},
{
    "Identifiant": "97104",
    "Numéro S3IC": null,
    "Commune": "LA CAPELLE-BLEYS",
    "Site en activité": "Non",
    "Exploitation en eau": "Non",
    "Substances": null,
    "Produits": null,
    "Longitude": "2.177983",
    "Latitude": "44.314534",
    "Date de fin d'autorisation": null
},
{
    "Identifiant": "98781",
    "Numéro S3IC": null,
    "Commune": "TERGNIER",
    "Site en activité": "Non",
    "Exploitation en eau": "Non",
    "Substances": null,
    "Produits": null,
    "Longitude": "3.324948",
    "Latitude": "49.649918",
    "Date de fin d'autorisation": null
},
{
    "Identifiant": "100064",
    "Numéro S3IC": null,
    "Commune": "VAUX-ANDIGNY",
    "Site en activité": "Non",
    "Exploitation en eau": "Non",
    "Substances": null,
    "Produits": null,
    "Longitude": "3.517272",
    "Latitude": "50.014293",
    "Date de fin d'autorisation": null
},
{
    "Identifiant": "100157",
    "Numéro S3IC": null,
    "Commune": "GRISOLLES",
    "Site en activité": "Non",
    "Exploitation en eau": "Non",
    "Substances": null,
    "Produits": null,
    "Longitude": "3.37416",
    "Latitude": "49.143772",
    "Date de fin d'autorisation": null
},
{
    "Identifiant": "100156",
    "Numéro S3IC": null,
    "Commune": "GRISOLLES",
    "Site en activité": "Non",
    "Exploitation en eau": "Non",
    "Substances": null,
    "Produits": null,
    "Longitude": "3.369159",
    "Latitude": "49.138388",
    "Date de fin d'autorisation": null
},
{
    "Identifiant": "104816",
    "Numéro S3IC": null,
    "Commune": "TERGNIER",
    "Site en activité": "Non",
    "Exploitation en eau": "Non",
    "Substances": null,
    "Produits": null,
    "Longitude": "3.302868",
    "Latitude": "49.673898",
    "Date de fin d'autorisation": null
},
{
    "Identifiant": "85406",
    "Numéro S3IC": null,
    "Commune": "TERGNIER",
    "Site en activité": "Non",
    "Exploitation en eau": "Non",
    "Substances": "Sable, graviers",
    "Produits": null,
    "Longitude": "3.271903",
    "Latitude": "49.663603",
    "Date de fin d'autorisation": null
},
{
    "Identifiant": "33875",
    "Numéro S3IC": null,
    "Commune": "BUGNICOURT",
    "Site en activité": "Non",
    "Exploitation en eau": "Non",
    "Substances": null,
    "Produits": null,
    "Longitude": "3.145783",
    "Latitude": "50.297675",
    "Date de fin d'autorisation": null
},
{
    "Identifiant": "131434",
    "Numéro S3IC": null,
    "Commune": "CUSSAC-FORT-MEDOC",
    "Site en activité": "Non",
    "Exploitation en eau": "Non",
    "Substances": null,
    "Produits": null,
    "Longitude": "-0.750933863551419",
    "Latitude": "45.1207234212672",
    "Date de fin d'autorisation": null
},
{
    "Identifiant": "95979",
    "Numéro S3IC": null,
    "Commune": "GIRONDE-SUR-DROPT",
    "Site en activité": "Non",
    "Exploitation en eau": "Non",
    "Substances": "Argiles",
    "Produits": null,
    "Longitude": "-0.084078",
    "Latitude": "44.599798",
    "Date de fin d'autorisation": null
},
{
    "Identifiant": "97104",
    "Numéro S3IC": null,
    "Commune": "LA CAPELLE-BLEYS",
    "Site en activité": "Non",
    "Exploitation en eau": "Non",
    "Substances": null,
    "Produits": null,
    "Longitude": "2.177983",
    "Latitude": "44.314534",
    "Date de fin d'autorisation": null
},
{
    "Identifiant": "98781",
    "Numéro S3IC": null,
    "Commune": "TERGNIER",
    "Site en activité": "Non",
    "Exploitation en eau": "Non",
    "Substances": null,
    "Produits": null,
    "Longitude": "3.324948",
    "Latitude": "49.649918",
    "Date de fin d'autorisation": null
},
{
    "Identifiant": "100064",
    "Numéro S3IC": null,
    "Commune": "VAUX-ANDIGNY",
    "Site en activité": "Non",
    "Exploitation en eau": "Non",
    "Substances": null,
    "Produits": null,
    "Longitude": "3.517272",
    "Latitude": "50.014293",
    "Date de fin d'autorisation": null
},
{
    "Identifiant": "100157",
    "Numéro S3IC": null,
    "Commune": "GRISOLLES",
    "Site en activité": "Non",
    "Exploitation en eau": "Non",
    "Substances": null,
    "Produits": null,
    "Longitude": "3.37416",
    "Latitude": "49.143772",
    "Date de fin d'autorisation": null
},
{
    "Identifiant": "100156",
    "Numéro S3IC": null,
    "Commune": "GRISOLLES",
    "Site en activité": "Non",
    "Exploitation en eau": "Non",
    "Substances": null,
    "Produits": null,
    "Longitude": "3.369159",
    "Latitude": "49.138388",
    "Date de fin d'autorisation": null
},
{
    "Identifiant": "104816",
    "Numéro S3IC": null,
    "Commune": "TERGNIER",
    "Site en activité": "Non",
    "Exploitation en eau": "Non",
    "Substances": null,
    "Produits": null,
    "Longitude": "3.302868",
    "Latitude": "49.673898",
    "Date de fin d'autorisation": null
},
{
    "Identifiant": "85406",
    "Numéro S3IC": null,
    "Commune": "TERGNIER",
    "Site en activité": "Non",
    "Exploitation en eau": "Non",
    "Substances": "Sable, graviers",
    "Produits": null,
    "Longitude": "3.271903",
    "Latitude": "49.663603",
    "Date de fin d'autorisation": null
},
{
    "Identifiant": "85400",
    "Numéro S3IC": null,
    "Commune": "TERGNIER",
    "Site en activité": "Non",
    "Exploitation en eau": "Non",
    "Substances": null,
    "Produits": null,
    "Longitude": "3.311384",
    "Latitude": "49.642859",
    "Date de fin d'autorisation": null
},
{
    "Identifiant": "85408",
    "Numéro S3IC": null,
    "Commune": "TERGNIER",
    "Site en activité": "Non",
    "Exploitation en eau": "Non",
    "Substances": "Sable, graviers",
    "Produits": null,
    "Longitude": "3.317025",
    "Latitude": "49.647762",
    "Date de fin d'autorisation": null
},
{
    "Identifiant": "10660",
    "Numéro S3IC": null,
    "Commune": "GRISOLLES",
    "Site en activité": "Non",
    "Exploitation en eau": "Non",
    "Substances": "Sable",
    "Produits": "Granulat meuble divers",
    "Longitude": "3.368586",
    "Latitude": "49.142873",
    "Date de fin d'autorisation": null
},
{
    "Identifiant": "11170",
    "Numéro S3IC": null,
    "Commune": "FLAVIGNY-LE-GRAND-ET-BEAURAIN",
    "Site en activité": "Non",
    "Exploitation en eau": "Non",
    "Substances": null,
    "Produits": null,
    "Longitude": "3.669599",
    "Latitude": "49.887565",
    "Date de fin d'autorisation": null
},
{
    "Identifiant": "11169",
    "Numéro S3IC": null,
    "Commune": "FLAVIGNY-LE-GRAND-ET-BEAURAIN",
    "Site en activité": "Non",
    "Exploitation en eau": "Non",
    "Substances": null,
    "Produits": null,
    "Longitude": "3.663535",
    "Latitude": "49.887485",
    "Date de fin d'autorisation": null
},
{
    "Identifiant": "8529",
    "Numéro S3IC": null,
    "Commune": "TERGNIER",
    "Site en activité": "Non",
    "Exploitation en eau": "Non",
    "Substances": "Sable, graviers",
    "Produits": "Granulat alluvionnaire",
    "Longitude": "3.273728",
    "Latitude": "49.663863",
    "Date de fin d'autorisation": null
},
{
    "Identifiant": "9041",
    "Numéro S3IC": null,
    "Commune": "MOUSSY-VERNEUIL",
    "Site en activité": "Non",
    "Exploitation en eau": "Non",
    "Substances": null,
    "Produits": null,
    "Longitude": "3.635128",
    "Latitude": "49.403672",
    "Date de fin d'autorisation": null
},
{
    "Identifiant": "7815",
    "Numéro S3IC": null,
    "Commune": "BRISSAY-CHOIGNY",
    "Site en activité": "Non",
    "Exploitation en eau": "Non",
    "Substances": null,
    "Produits": null,
    "Longitude": "3.377778",
    "Latitude": "49.725321",
    "Date de fin d'autorisation": null
},
{
    "Identifiant": "7814",
    "Numéro S3IC": null,
    "Commune": "BRISSAY-CHOIGNY",
    "Site en activité": "Non",
    "Exploitation en eau": "Non",
    "Substances": null,
    "Produits": null,
    "Longitude": "3.375553",
    "Latitude": "49.731053",
    "Date de fin d'autorisation": null
},
{
    "Identifiant": "7821",
    "Numéro S3IC": null,
    "Commune": "BRISSAY-CHOIGNY",
    "Site en activité": "Non",
    "Exploitation en eau": "Non",
    "Substances": null,
    "Produits": null,
    "Longitude": "3.402168",
    "Latitude": "49.721227",
    "Date de fin d'autorisation": null
},
{
    "Identifiant": "7694",
    "Numéro S3IC": null,
    "Commune": "BRISSAY-CHOIGNY",
    "Site en activité": "Non",
    "Exploitation en eau": "Non",
    "Substances": null,
    "Produits": null,
    "Longitude": "3.421261",
    "Latitude": "49.722512",
    "Date de fin d'autorisation": null
},
{
    "Identifiant": "97734",
    "Numéro S3IC": null,
    "Commune": "CASTELNAU-DURBAN",
    "Site en activité": "Non",
    "Exploitation en eau": "Non",
    "Substances": "Roche calcaire",
    "Produits": null,
    "Longitude": "1.333034",
    "Latitude": "42.995366",
    "Date de fin d'autorisation": null
},
{
    "Identifiant": "85224",
    "Numéro S3IC": null,
    "Commune": "QUERRIEU",
    "Site en activité": "Non",
    "Exploitation en eau": "Non",
    "Substances": "Craie",
    "Produits": null,
    "Longitude": "2.409654",
    "Latitude": "49.938632",
    "Date de fin d'autorisation": null
},
{
    "Identifiant": "97113",
    "Numéro S3IC": null,
    "Commune": "LAISSAC-SEVERAC L'EGLISE",
    "Site en activité": "Non",
    "Exploitation en eau": "Non",
    "Substances": "Roche calcaire",
    "Produits": null,
    "Longitude": "2.827991",
    "Latitude": "44.393929",
    "Date de fin d'autorisation": null
},
{
    "Identifiant": "96581",
    "Numéro S3IC": null,
    "Commune": "BELLEGARDE",
    "Site en activité": "Non",
    "Exploitation en eau": "Non",
    "Substances": null,
    "Produits": null,
    "Longitude": "4.484327",
    "Latitude": "43.752695",
    "Date de fin d'autorisation": null
},
{
    "Identifiant": "121257",
    "Numéro S3IC": "0054.00000",
    "Commune": "GURGY",
    "Site en activité": "Non",
    "Exploitation en eau": "Non",
    "Substances": "Sable, graviers",
    "Produits": null,
    "Longitude": "3.556521",
    "Latitude": "47.878718",
    "Date de fin d'autorisation": null
},
{
    "Identifiant": "65203",
    "Numéro S3IC": "0063.01634",
    "Commune": "QUILLY",
    "Site en activité": "Non",
    "Exploitation en eau": "Non",
    "Substances": "Sable",
    "Produits": "Granulat alluvionnaire",
    "Longitude": null,
    "Latitude": null,
    "Date de fin d'autorisation": "2003"
},
{
    "Identifiant": "82131",
    "Numéro S3IC": null,
    "Commune": "VALBOIS",
    "Site en activité": "Non",
    "Exploitation en eau": "Non",
    "Substances": "Sable, graviers",
    "Produits": null,
    "Longitude": "5.592217",
    "Latitude": "48.949568",
    "Date de fin d'autorisation": null
},
{
    "Identifiant": "82132",
    "Numéro S3IC": null,
    "Commune": "LAMORVILLE",
    "Site en activité": "Non",
    "Exploitation en eau": "Non",
    "Substances": "Sable",
    "Produits": "Granulat alluvionnaire",
    "Longitude": "5.589986",
    "Latitude": "48.952271",
    "Date de fin d'autorisation": null
},
{
    "Identifiant": "1460",
    "Numéro S3IC": null,
    "Commune": "LA MARNE",
    "Site en activité": "Non",
    "Exploitation en eau": "Non",
    "Substances": "Sable, graviers",
    "Produits": "Granulat alluvionnaire",
    "Longitude": null,
    "Latitude": null,
    "Date de fin d'autorisation": null
},
{
    "Identifiant": "1450",
    "Numéro S3IC": null,
    "Commune": "ABBARETZ",
    "Site en activité": "Non",
    "Exploitation en eau": "Non",
    "Substances": "Haldes, Terrils",
    "Produits": "Granulat meuble divers",
    "Longitude": "-1.538859",
    "Latitude": "47.561688",
    "Date de fin d'autorisation": null
},
{
    "Identifiant": "1468",
    "Numéro S3IC": "0063.00111",
    "Commune": "SAINTE-ANNE-SUR-BRIVET",
    "Site en activité": "Non",
    "Exploitation en eau": "Non",
    "Substances": "Sable",
    "Produits": "Granulat alluvionnaire",
    "Longitude": "-2.017816",
    "Latitude": "47.444914",
    "Date de fin d'autorisation": null
},
{
    "Identifiant": "98653",
    "Numéro S3IC": null,
    "Commune": "VIVIERS",
    "Site en activité": "Non",
    "Exploitation en eau": "Non",
    "Substances": null,
    "Produits": null,
    "Longitude": "4.695566",
    "Latitude": "44.521338",
    "Date de fin d'autorisation": null
},
{
    "Identifiant": "96222",
    "Numéro S3IC": null,
    "Commune": "OEYREGAVE",
    "Site en activité": "Non",
    "Exploitation en eau": "Non",
    "Substances": null,
    "Produits": null,
    "Longitude": "-3.40456",
    "Latitude": "27.140974",
    "Date de fin d'autorisation": null
},
{
    "Identifiant": "97165",
    "Numéro S3IC": null,
    "Commune": "SAINT-PORQUIER",
    "Site en activité": "Non",
    "Exploitation en eau": "Non",
    "Substances": null,
    "Produits": null,
    "Longitude": "-3.40456",
    "Latitude": "27.140974",
    "Date de fin d'autorisation": null
},
{
    "Identifiant": "66562",
    "Numéro S3IC": "0073.00068",
    "Commune": "MONTE",
    "Site en activité": "Non",
    "Exploitation en eau": "Non",
    "Substances": "Schiste",
    "Produits": "Pierres ornementales",
    "Longitude": null,
    "Latitude": null,
    "Date de fin d'autorisation": "2006"
},
{
    "Identifiant": "66566",
    "Numéro S3IC": "0073.00073",
    "Commune": "POGGIO-DI-VENACO",
    "Site en activité": "Non",
    "Exploitation en eau": "Non",
    "Substances": "Sable, graviers",
    "Produits": "Granulat alluvionnaire",
    "Longitude": "9.224765",
    "Latitude": "42.270829",
    "Date de fin d'autorisation": null
},
{
    "Identifiant": "69106",
    "Numéro S3IC": "0073.00030",
    "Commune": "PRUNELLI-DI-FIUMORBO",
    "Site en activité": "Non",
    "Exploitation en eau": "Non",
    "Substances": "Sable, graviers",
    "Produits": "Granulat alluvionnaire",
    "Longitude": null,
    "Latitude": null,
    "Date de fin d'autorisation": null
},
{
    "Identifiant": "65287",
    "Numéro S3IC": "0073.00015",
    "Commune": "APPIETTO",
    "Site en activité": "Non",
    "Exploitation en eau": "Non",
    "Substances": null,
    "Produits": null,
    "Longitude": null,
    "Latitude": null,
    "Date de fin d'autorisation": null
},
{
    "Identifiant": "924",
    "Numéro S3IC": "0053.01380",
    "Commune": "SAINT-MICHEL-DE-MONTJOIE",
    "Site en activité": "Non",
    "Exploitation en eau": "Non",
    "Substances": "Granite, granodiorite, etc",
    "Produits": "Pierres ornementales",
    "Longitude": "-1.027693",
    "Latitude": "48.763755",
    "Date de fin d'autorisation": null
},
{
    "Identifiant": "65806",
    "Numéro S3IC": null,
    "Commune": "MONTHYON",
    "Site en activité": "Non",
    "Exploitation en eau": "Non",
    "Substances": "Gypse, anhydrite",
    "Produits": "Agriculture, Ciment",
    "Longitude": "2.839146",
    "Latitude": "49.006378",
    "Date de fin d'autorisation": null
},
{
    "Identifiant": "134642",
    "Numéro S3IC": "0061.01768",
    "Commune": "CUSY",
    "Site en activité": "Non",
    "Exploitation en eau": "Non",
    "Substances": "Roche calcaire",
    "Produits": "Concassé de roche calcaire",
    "Longitude": "6.010344",
    "Latitude": "45.756734",
    "Date de fin d'autorisation": "2012"
},
{
    "Identifiant": "88734",
    "Numéro S3IC": "0052.04329",
    "Commune": "GAVAUDUN",
    "Site en activité": "Non",
    "Exploitation en eau": "Non",
    "Substances": "Roche calcaire",
    "Produits": "Concassé de roche calcaire",
    "Longitude": "0.88534",
    "Latitude": "44.558302",
    "Date de fin d'autorisation": "2012"
},
{
    "Identifiant": "133244",
    "Numéro S3IC": "0059.01611",
    "Commune": "ANDELOT-EN-MONTAGNE",
    "Site en activité": "Oui",
    "Exploitation en eau": "Oui",
    "Substances": "Roche calcaire",
    "Produits": "Concassé de roche calcaire",
    "Longitude": "5.917015908017634",
    "Latitude": "46.850605714597975",
    "Date de fin d'autorisation": "2035"
},
{
    "Identifiant": "133341",
    "Numéro S3IC": "0054.00253",
    "Commune": "LA ROCHEPOT",
    "Site en activité": "Oui",
    "Exploitation en eau": "Oui",
    "Substances": "Roche calcaire",
    "Produits": "Concassé de roche calcaire",
    "Longitude": "4.674003770559069",
    "Latitude": "46.96825450528817",
    "Date de fin d'autorisation": "2042"
},
{
    "Identifiant": "69161",
    "Numéro S3IC": "0072.01678",
    "Commune": "GUITINIERES",
    "Site en activité": "Non",
    "Exploitation en eau": "Non",
    "Substances": "Roche calcaire",
    "Produits": "Concassé de roche calcaire",
    "Longitude": "-0.508088",
    "Latitude": "45.430358",
    "Date de fin d'autorisation": null
},
{
    "Identifiant": "69199",
    "Numéro S3IC": "0072.01680",
    "Commune": "PLASSAY",
    "Site en activité": "Non",
    "Exploitation en eau": "Oui",
    "Substances": "Roche calcaire",
    "Produits": "Concassé de roche calcaire",
    "Longitude": "-0.72496",
    "Latitude": "45.817958",
    "Date de fin d'autorisation": "2004"
},
{
    "Identifiant": "72566",
    "Numéro S3IC": "0060.00236",
    "Commune": "SAINT-CYR",
    "Site en activité": "Non",
    "Exploitation en eau": "Non",
    "Substances": "Granite, granodiorite, etc",
    "Produits": "Concassé de roche plutonique",
    "Longitude": "0.999645",
    "Latitude": "45.817608",
    "Date de fin d'autorisation": "1993"
},
{
    "Identifiant": "1164",
    "Numéro S3IC": "0052.03857",
    "Commune": "SAINT-AUBIN-DE-BLAYE",
    "Site en activité": "Non",
    "Exploitation en eau": "Non",
    "Substances": "Sable, graviers",
    "Produits": "Granulat alluvionnaire",
    "Longitude": null,
    "Latitude": null,
    "Date de fin d'autorisation": "2005"
},
{
    "Identifiant": "837",
    "Numéro S3IC": "0072.01932",
    "Commune": "THENAC",
    "Site en activité": "Non",
    "Exploitation en eau": "Non",
    "Substances": "Calcaire crayeux",
    "Produits": "Chaux",
    "Longitude": "-0.68189",
    "Latitude": "45.669985",
    "Date de fin d'autorisation": null
},
{
    "Identifiant": "74570",
    "Numéro S3IC": "0072.02156",
    "Commune": "GRAVES",
    "Site en activité": "Non",
    "Exploitation en eau": "Non",
    "Substances": "Roche calcaire",
    "Produits": "Pierres ornementales",
    "Longitude": "-0.117691",
    "Latitude": "45.630182",
    "Date de fin d'autorisation": "2004"
},
{
    "Identifiant": "74572",
    "Numéro S3IC": null,
    "Commune": "AUSSAC-VADALLE",
    "Site en activité": "Non",
    "Exploitation en eau": "Non",
    "Substances": "Roche calcaire",
    "Produits": "Pierres ornementales",
    "Longitude": null,
    "Latitude": null,
    "Date de fin d'autorisation": "2005"
},
{
    "Identifiant": "73501",
    "Numéro S3IC": "0067.00163",
    "Commune": "SCHAFFHOUSE-PRES-SELTZ",
    "Site en activité": "Oui",
    "Exploitation en eau": "Non",
    "Substances": "Silt, limon",
    "Produits": "Tuiles et briques",
    "Longitude": "8.095761",
    "Latitude": "48.923533",
    "Date de fin d'autorisation": null
},
{
    "Identifiant": "69132",
    "Numéro S3IC": "0070.00110",
    "Commune": "WALLERS-EN-FAGNE",
    "Site en activité": "Oui",
    "Exploitation en eau": "Oui",
    "Substances": "Roche calcaire",
    "Produits": "Concassé de roche calcaire",
    "Longitude": "4.174845",
    "Latitude": "50.055776",
    "Date de fin d'autorisation": "2041"
},
{
    "Identifiant": "110717",
    "Numéro S3IC": "0057.00319",
    "Commune": "RILLY-SAINTE-SYRE",
    "Site en activité": "Non",
    "Exploitation en eau": "Non",
    "Substances": "Sable, graviers",
    "Produits": "Granulat alluvionnaire",
    "Longitude": "3.958354",
    "Latitude": "48.436643",
    "Date de fin d'autorisation": "1999"
},
{
    "Identifiant": "64879",
    "Numéro S3IC": "0057.00394",
    "Commune": "ROSNAY-L'HOPITAL",
    "Site en activité": "Non",
    "Exploitation en eau": "Non",
    "Substances": "Alluvion",
    "Produits": "Granulat alluvionnaire",
    "Longitude": "4.502531",
    "Latitude": "48.460641",
    "Date de fin d'autorisation": "1988"
},
{
    "Identifiant": "65153",
    "Numéro S3IC": "0063.00051",
    "Commune": "GUENROUET",
    "Site en activité": "Non",
    "Exploitation en eau": "Non",
    "Substances": "Sable, graviers",
    "Produits": "Granulat alluvionnaire",
    "Longitude": null,
    "Latitude": null,
    "Date de fin d'autorisation": "2009"
},
{
    "Identifiant": "65207",
    "Numéro S3IC": null,
    "Commune": "DONGES",
    "Site en activité": "Non",
    "Exploitation en eau": "Non",
    "Substances": "Gneiss",
    "Produits": "Concassé de roche métamorphique",
    "Longitude": null,
    "Latitude": null,
    "Date de fin d'autorisation": "2005"
},
{
    "Identifiant": "72884",
    "Numéro S3IC": "0063.00040",
    "Commune": "ERBRAY",
    "Site en activité": "Oui",
    "Exploitation en eau": "Non",
    "Substances": "Roche calcaire",
    "Produits": "Agriculture",
    "Longitude": "-1.2944",
    "Latitude": "47.651593",
    "Date de fin d'autorisation": "2015"
},
{
    "Identifiant": "135695",
    "Numéro S3IC": "0057.04755",
    "Commune": "REIMS-LA-BRULEE",
    "Site en activité": "Oui",
    "Exploitation en eau": "Oui",
    "Substances": "Sable, graviers",
    "Produits": "Agriculture",
    "Longitude": "4.680443977927964",
    "Latitude": "48.70959077817277",
    "Date de fin d'autorisation": "2016"
},
{
    "Identifiant": "71097",
    "Numéro S3IC": "0064.01572",
    "Commune": "CHATEAUNEUF-LES-MARTIGUES",
    "Site en activité": "Non",
    "Exploitation en eau": "Non",
    "Substances": "Roche calcaire",
    "Produits": "Concassé de roche calcaire",
    "Longitude": "5.128177",
    "Latitude": "43.384423",
    "Date de fin d'autorisation": "2003"
},
{
    "Identifiant": "73684",
    "Numéro S3IC": "0057.00342",
    "Commune": "NOGENT-SUR-SEINE",
    "Site en activité": "Non",
    "Exploitation en eau": "Non",
    "Substances": "Alluvion",
    "Produits": "Granulat alluvionnaire",
    "Longitude": "3.481507",
    "Latitude": "48.500475",
    "Date de fin d'autorisation": "2004"
},
{
    "Identifiant": "21215",
    "Numéro S3IC": null,
    "Commune": "SAINT-LUBIN-DES-JONCHERETS",
    "Site en activité": "Non",
    "Exploitation en eau": "Non",
    "Substances": "Sable, graviers",
    "Produits": "Granulat alluvionnaire",
    "Longitude": "1.16428",
    "Latitude": "48.768045",
    "Date de fin d'autorisation": null
},
{
    "Identifiant": "30941",
    "Numéro S3IC": null,
    "Commune": "FLEURY-LA-MONTAGNE",
    "Site en activité": "Non",
    "Exploitation en eau": "Non",
    "Substances": "Argiles",
    "Produits": "Tuiles et briques",
    "Longitude": "4.119693",
    "Latitude": "46.210802",
    "Date de fin d'autorisation": null
},
{
    "Identifiant": "29172",
    "Numéro S3IC": null,
    "Commune": "SAINT-MARTIN-SOUS-MONTAIGU",
    "Site en activité": "Non",
    "Exploitation en eau": "Non",
    "Substances": null,
    "Produits": null,
    "Longitude": "4.712718",
    "Latitude": "46.807187",
    "Date de fin d'autorisation": null
},
{
    "Identifiant": "132681",
    "Numéro S3IC": null,
    "Commune": null,
    "Site en activité": "Non",
    "Exploitation en eau": "Non",
    "Substances": "Sable, graviers, galets",
    "Produits": "Granulat alluvionnaire",
    "Longitude": "7.150495",
    "Latitude": "47.7904",
    "Date de fin d'autorisation": null
},
{
    "Identifiant": "120908",
    "Numéro S3IC": null,
    "Commune": "CROTS",
    "Site en activité": "Non",
    "Exploitation en eau": "Non",
    "Substances": null,
    "Produits": null,
    "Longitude": "6.466358",
    "Latitude": "44.533619",
    "Date de fin d'autorisation": null
},
{
    "Identifiant": "87223",
    "Numéro S3IC": "0051.03011",
    "Commune": "BERNEUIL-EN-BRAY",
    "Site en activité": "Non",
    "Exploitation en eau": "Non",
    "Substances": "Argiles",
    "Produits": "Tuiles et briques",
    "Longitude": "2.053964",
    "Latitude": "49.363084",
    "Date de fin d'autorisation": "2008"
},
{
    "Identifiant": "88608",
    "Numéro S3IC": "0062.07845",
    "Commune": "FORBACH",
    "Site en activité": "Non",
    "Exploitation en eau": "Non",
    "Substances": null,
    "Produits": "Ciment",
    "Longitude": null,
    "Latitude": null,
    "Date de fin d'autorisation": "2014"
},
{
    "Identifiant": "66476",
    "Numéro S3IC": null,
    "Commune": "MAISSE",
    "Site en activité": "Non",
    "Exploitation en eau": "Non",
    "Substances": "Sable",
    "Produits": "Granulat alluvionnaire",
    "Longitude": "2.371923",
    "Latitude": "48.39855",
    "Date de fin d'autorisation": null
},
{
    "Identifiant": "65952",
    "Numéro S3IC": null,
    "Commune": "BOUVILLE",
    "Site en activité": "Non",
    "Exploitation en eau": "Non",
    "Substances": "Sable, Sable, graviers",
    "Produits": "Granulat alluvionnaire",
    "Longitude": "2.304402",
    "Latitude": "48.436854",
    "Date de fin d'autorisation": null
},
{
    "Identifiant": "65791",
    "Numéro S3IC": "0065.01516",
    "Commune": "MAROLLES-SUR-SEINE",
    "Site en activité": "Non",
    "Exploitation en eau": "Non",
    "Substances": "Sable, graviers",
    "Produits": "Granulat alluvionnaire",
    "Longitude": "3.029246",
    "Latitude": "48.393847",
    "Date de fin d'autorisation": null
},
{
    "Identifiant": "66327",
    "Numéro S3IC": null,
    "Commune": "SOISY-BOUY",
    "Site en activité": "Non",
    "Exploitation en eau": "Non",
    "Substances": "Argiles",
    "Produits": "Granulat meuble divers",
    "Longitude": "3.294357",
    "Latitude": "48.519544",
    "Date de fin d'autorisation": null
},
{
    "Identifiant": "66385",
    "Numéro S3IC": null,
    "Commune": "JOUARS-PONTCHARTRAIN",
    "Site en activité": "Non",
    "Exploitation en eau": "Non",
    "Substances": "Sable",
    "Produits": "Granulat alluvionnaire",
    "Longitude": null,
    "Latitude": null,
    "Date de fin d'autorisation": null
},
{
    "Identifiant": "66246",
    "Numéro S3IC": null,
    "Commune": "MOISENAY",
    "Site en activité": "Non",
    "Exploitation en eau": "Non",
    "Substances": "Roche calcaire",
    "Produits": "Concassé de roche calcaire",
    "Longitude": "2.757601",
    "Latitude": "48.568718",
    "Date de fin d'autorisation": null
},
{
    "Identifiant": "66465",
    "Numéro S3IC": null,
    "Commune": "ETAMPES",
    "Site en activité": "Non",
    "Exploitation en eau": "Non",
    "Substances": "Sable",
    "Produits": "Granulat alluvionnaire",
    "Longitude": "2.165614",
    "Latitude": "48.449698",
    "Date de fin d'autorisation": null
},
{
    "Identifiant": "66554",
    "Numéro S3IC": null,
    "Commune": "VEMARS",
    "Site en activité": "Non",
    "Exploitation en eau": "Non",
    "Substances": "Sable",
    "Produits": "Granulat alluvionnaire",
    "Longitude": "2.55394",
    "Latitude": "49.060386",
    "Date de fin d'autorisation": null
},
{
    "Identifiant": "80801",
    "Numéro S3IC": null,
    "Commune": "SAINT-WITZ",
    "Site en activité": "Non",
    "Exploitation en eau": "Non",
    "Substances": null,
    "Produits": null,
    "Longitude": "2.525497",
    "Latitude": "49.094214",
    "Date de fin d'autorisation": null
},
{
    "Identifiant": "66250",
    "Numéro S3IC": null,
    "Commune": "MONTHYON",
    "Site en activité": "Non",
    "Exploitation en eau": "Non",
    "Substances": "Gypse, anhydrite",
    "Produits": "Plâtre",
    "Longitude": "2.850186",
    "Latitude": "49.002676",
    "Date de fin d'autorisation": null
},
{
    "Identifiant": "111048",
    "Numéro S3IC": "0073.00031",
    "Commune": "GIUNCAGGIO",
    "Site en activité": "Non",
    "Exploitation en eau": "Non",
    "Substances": "Sable, graviers",
    "Produits": "Granulat alluvionnaire",
    "Longitude": "9.422704",
    "Latitude": "42.169946",
    "Date de fin d'autorisation": "2011"
},
{
    "Identifiant": "86933",
    "Numéro S3IC": null,
    "Commune": "MERCUROL-VEAUNES",
    "Site en activité": "Non",
    "Exploitation en eau": "Non",
    "Substances": null,
    "Produits": null,
    "Longitude": "4.883695",
    "Latitude": "45.059152",
    "Date de fin d'autorisation": null
},
{
    "Identifiant": "86934",
    "Numéro S3IC": null,
    "Commune": "MERCUROL-VEAUNES",
    "Site en activité": "Non",
    "Exploitation en eau": "Non",
    "Substances": null,
    "Produits": null,
    "Longitude": "4.868104",
    "Latitude": "45.056971",
    "Date de fin d'autorisation": null
},
{
    "Identifiant": "120162",
    "Numéro S3IC": null,
    "Commune": "VOUZAN",
    "Site en activité": null,
    "Exploitation en eau": "Non",
    "Substances": null,
    "Produits": null,
    "Longitude": null,
    "Latitude": null,
    "Date de fin d'autorisation": null
},
{
    "Identifiant": "134330",
    "Numéro S3IC": null,
    "Commune": "CALANHEL",
    "Site en activité": "Non",
    "Exploitation en eau": "Non",
    "Substances": "Amphibolite",
    "Produits": "Concassé de roche métamorphique",
    "Longitude": "-3.470271",
    "Latitude": "48.447671",
    "Date de fin d'autorisation": null
},
{
    "Identifiant": "20716",
    "Numéro S3IC": null,
    "Commune": "VEUVES",
    "Site en activité": "Non",
    "Exploitation en eau": "Non",
    "Substances": "Sable, graviers",
    "Produits": "Granulat alluvionnaire",
    "Longitude": "1.096307",
    "Latitude": "47.46533",
    "Date de fin d'autorisation": null
},
{
    "Identifiant": "88378",
    "Numéro S3IC": null,
    "Commune": "LE TAMPON",
    "Site en activité": "Non",
    "Exploitation en eau": "Non",
    "Substances": null,
    "Produits": "Granulat meuble divers",
    "Longitude": "55.531253",
    "Latitude": "-21.216395",
    "Date de fin d'autorisation": null
},
{
    "Identifiant": "88121",
    "Numéro S3IC": null,
    "Commune": "BASSE-TERRE",
    "Site en activité": null,
    "Exploitation en eau": "Non",
    "Substances": null,
    "Produits": null,
    "Longitude": "-61.430373",
    "Latitude": "16.251093",
    "Date de fin d'autorisation": null
},
{
    "Identifiant": "88374",
    "Numéro S3IC": null,
    "Commune": "LE TAMPON",
    "Site en activité": "Non",
    "Exploitation en eau": "Non",
    "Substances": null,
    "Produits": null,
    "Longitude": "55.532144",
    "Latitude": "-21.215636",
    "Date de fin d'autorisation": null
},
{
    "Identifiant": "127221",
    "Numéro S3IC": null,
    "Commune": "AIRE-SUR-L'ADOUR",
    "Site en activité": null,
    "Exploitation en eau": "Non",
    "Substances": null,
    "Produits": null,
    "Longitude": null,
    "Latitude": null,
    "Date de fin d'autorisation": null
},
{
    "Identifiant": "128421",
    "Numéro S3IC": null,
    "Commune": "SAINT-GERMAIN-LAPRADE",
    "Site en activité": "Non",
    "Exploitation en eau": "Non",
    "Substances": "Sable, graviers",
    "Produits": "Granulat meuble divers",
    "Longitude": "3.953701",
    "Latitude": "45.056445",
    "Date de fin d'autorisation": null
},
{
    "Identifiant": "121702",
    "Numéro S3IC": null,
    "Commune": "AIGUES-VIVES",
    "Site en activité": "Non",
    "Exploitation en eau": "Non",
    "Substances": "Graviers, galets",
    "Produits": null,
    "Longitude": "4.208151",
    "Latitude": "43.707432",
    "Date de fin d'autorisation": "1992"
},
{
    "Identifiant": "79177",
    "Numéro S3IC": null,
    "Commune": "SAINT-LAURENT-NOUAN",
    "Site en activité": "Non",
    "Exploitation en eau": "Non",
    "Substances": "Sable, graviers",
    "Produits": "Granulat alluvionnaire",
    "Longitude": "1.562366",
    "Latitude": "47.690107",
    "Date de fin d'autorisation": null
},
{
    "Identifiant": "79435",
    "Numéro S3IC": null,
    "Commune": "SALBRIS",
    "Site en activité": "Non",
    "Exploitation en eau": "Non",
    "Substances": "Sable, graviers",
    "Produits": "Voirie, Granulat alluvionnaire",
    "Longitude": "2.079964",
    "Latitude": "47.443582",
    "Date de fin d'autorisation": null
},
{
    "Identifiant": "79436",
    "Numéro S3IC": null,
    "Commune": "SALBRIS",
    "Site en activité": "Non",
    "Exploitation en eau": "Non",
    "Substances": null,
    "Produits": null,
    "Longitude": "2.08954",
    "Latitude": "47.451519",
    "Date de fin d'autorisation": null
},
{
    "Identifiant": "75797",
    "Numéro S3IC": null,
    "Commune": "VEZEZOUX",
    "Site en activité": "Non",
    "Exploitation en eau": "Non",
    "Substances": "Sable, Graviers, galets",
    "Produits": null,
    "Longitude": "3.335641",
    "Latitude": "45.407603",
    "Date de fin d'autorisation": null
},
{
    "Identifiant": "132582",
    "Numéro S3IC": null,
    "Commune": "ADAMSWILLER",
    "Site en activité": null,
    "Exploitation en eau": "Non",
    "Substances": null,
    "Produits": null,
    "Longitude": null,
    "Latitude": null,
    "Date de fin d'autorisation": null
},
{
    "Identifiant": "78814",
    "Numéro S3IC": null,
    "Commune": "TREHET",
    "Site en activité": "Non",
    "Exploitation en eau": "Non",
    "Substances": "Sable, graviers",
    "Produits": "Granulat alluvionnaire",
    "Longitude": "0.64787",
    "Latitude": "47.740496",
    "Date de fin d'autorisation": null
},
{
    "Identifiant": "78817",
    "Numéro S3IC": null,
    "Commune": "TREHET",
    "Site en activité": "Non",
    "Exploitation en eau": "Non",
    "Substances": null,
    "Produits": null,
    "Longitude": "0.646423",
    "Latitude": "47.739845",
    "Date de fin d'autorisation": null
},
{
    "Identifiant": "78836",
    "Numéro S3IC": null,
    "Commune": "THORE-LA-ROCHETTE",
    "Site en activité": "Non",
    "Exploitation en eau": "Non",
    "Substances": null,
    "Produits": null,
    "Longitude": "0.961297",
    "Latitude": "47.801706",
    "Date de fin d'autorisation": null
},
{
    "Identifiant": "78837",
    "Numéro S3IC": null,
    "Commune": "THORE-LA-ROCHETTE",
    "Site en activité": "Non",
    "Exploitation en eau": "Non",
    "Substances": "Sable, Graviers, galets",
    "Produits": null,
    "Longitude": null,
    "Latitude": null,
    "Date de fin d'autorisation": null
},
{
    "Identifiant": "78839",
    "Numéro S3IC": null,
    "Commune": "THORE-LA-ROCHETTE",
    "Site en activité": "Non",
    "Exploitation en eau": "Non",
    "Substances": null,
    "Produits": null,
    "Longitude": "0.956954",
    "Latitude": "47.798358",
    "Date de fin d'autorisation": null
},
{
    "Identifiant": "78841",
    "Numéro S3IC": null,
    "Commune": "THORE-LA-ROCHETTE",
    "Site en activité": "Non",
    "Exploitation en eau": "Non",
    "Substances": "Sable, graviers",
    "Produits": "Granulat alluvionnaire",
    "Longitude": "0.962398",
    "Latitude": "47.802891",
    "Date de fin d'autorisation": null
},
{
    "Identifiant": "68786",
    "Numéro S3IC": null,
    "Commune": "ARDON",
    "Site en activité": "Non",
    "Exploitation en eau": "Non",
    "Substances": null,
    "Produits": null,
    "Longitude": "1.886507",
    "Latitude": "47.827482",
    "Date de fin d'autorisation": null
},
{
    "Identifiant": "20183",
    "Numéro S3IC": null,
    "Commune": "THORE-LA-ROCHETTE",
    "Site en activité": "Non",
    "Exploitation en eau": "Non",
    "Substances": null,
    "Produits": null,
    "Longitude": "0.960708",
    "Latitude": "47.802322",
    "Date de fin d'autorisation": null
},
{
    "Identifiant": "57814",
    "Numéro S3IC": null,
    "Commune": "ORIOL-EN-ROYANS",
    "Site en activité": "Non",
    "Exploitation en eau": "Non",
    "Substances": "Sable siliceux",
    "Produits": "Granulat alluvionnaire",
    "Longitude": "5.257678",
    "Latitude": "45.002245",
    "Date de fin d'autorisation": null
},
{
    "Identifiant": "87015",
    "Numéro S3IC": null,
    "Commune": "ORIOL-EN-ROYANS",
    "Site en activité": "Non",
    "Exploitation en eau": "Non",
    "Substances": "Sable siliceux",
    "Produits": null,
    "Longitude": "5.263184",
    "Latitude": "44.989521",
    "Date de fin d'autorisation": null
},
{
    "Identifiant": "96360",
    "Numéro S3IC": null,
    "Commune": "QUEZAC",
    "Site en activité": "Non",
    "Exploitation en eau": "Non",
    "Substances": null,
    "Produits": null,
    "Longitude": null,
    "Latitude": null,
    "Date de fin d'autorisation": null
},
{
    "Identifiant": "82702",
    "Numéro S3IC": null,
    "Commune": "RAISMES",
    "Site en activité": "Non",
    "Exploitation en eau": "Non",
    "Substances": "Sable",
    "Produits": null,
    "Longitude": "3.530778",
    "Latitude": "50.404702",
    "Date de fin d'autorisation": null
},
{
    "Identifiant": "127325",
    "Numéro S3IC": null,
    "Commune": "BANASSAC-CANILHAC",
    "Site en activité": "Non",
    "Exploitation en eau": "Non",
    "Substances": "Sable, graviers",
    "Produits": null,
    "Longitude": "3.170224",
    "Latitude": "44.439118",
    "Date de fin d'autorisation": null
},
{
    "Identifiant": "76188",
    "Numéro S3IC": null,
    "Commune": "SAINT-SENIER-SOUS-AVRANCHES",
    "Site en activité": "Non",
    "Exploitation en eau": "Non",
    "Substances": "Roche volcanique",
    "Produits": "Concassé de roche volcanique",
    "Longitude": "-1.336684",
    "Latitude": "48.687699",
    "Date de fin d'autorisation": null
},
{
    "Identifiant": "75988",
    "Numéro S3IC": null,
    "Commune": "VAUVILLE",
    "Site en activité": "Non",
    "Exploitation en eau": "Non",
    "Substances": null,
    "Produits": null,
    "Longitude": "-1.762996",
    "Latitude": "49.63612",
    "Date de fin d'autorisation": null
},
{
    "Identifiant": "96321",
    "Numéro S3IC": null,
    "Commune": "PIE-D'OREZZA",
    "Site en activité": "Non",
    "Exploitation en eau": "Non",
    "Substances": "Roche plutonique",
    "Produits": "Concassé de roche plutonique",
    "Longitude": "9.348506",
    "Latitude": "42.372881",
    "Date de fin d'autorisation": null
},
{
    "Identifiant": "122762",
    "Numéro S3IC": null,
    "Commune": "MOUILLY",
    "Site en activité": "Non",
    "Exploitation en eau": "Non",
    "Substances": "Sable, graviers",
    "Produits": "Granulat alluvionnaire",
    "Longitude": "5.533889",
    "Latitude": "49.045681",
    "Date de fin d'autorisation": null
},
{
    "Identifiant": "20179",
    "Numéro S3IC": null,
    "Commune": "VILLIERS-SUR-LOIR",
    "Site en activité": "Non",
    "Exploitation en eau": "Non",
    "Substances": "Argiles",
    "Produits": "Voirie",
    "Longitude": "0.990109",
    "Latitude": "47.800525",
    "Date de fin d'autorisation": null
},
{
    "Identifiant": "81819",
    "Numéro S3IC": null,
    "Commune": "REMOIVILLE",
    "Site en activité": "Non",
    "Exploitation en eau": "Non",
    "Substances": "Roche calcaire",
    "Produits": "Voirie",
    "Longitude": "5.390295",
    "Latitude": "49.443167",
    "Date de fin d'autorisation": null
},
{
    "Identifiant": "129267",
    "Numéro S3IC": null,
    "Commune": "TREVE",
    "Site en activité": "Non",
    "Exploitation en eau": "Non",
    "Substances": null,
    "Produits": null,
    "Longitude": "-2.81981190879427",
    "Latitude": "48.2119227277545",
    "Date de fin d'autorisation": null
},
{
    "Identifiant": "129482",
    "Numéro S3IC": null,
    "Commune": "SAINT-THURIAL",
    "Site en activité": "Non",
    "Exploitation en eau": "Non",
    "Substances": null,
    "Produits": null,
    "Longitude": "-1.91266803776898",
    "Latitude": "48.0431349441774",
    "Date de fin d'autorisation": null
},
{
    "Identifiant": "39033",
    "Numéro S3IC": null,
    "Commune": "JEBSHEIM",
    "Site en activité": "Non",
    "Exploitation en eau": "Non",
    "Substances": "Sable, graviers, galets",
    "Produits": "Granulat alluvionnaire",
    "Longitude": "7.508705",
    "Latitude": "48.117714",
    "Date de fin d'autorisation": null
},
{
    "Identifiant": "74759",
    "Numéro S3IC": null,
    "Commune": "HABSHEIM",
    "Site en activité": "Non",
    "Exploitation en eau": "Non",
    "Substances": null,
    "Produits": null,
    "Longitude": "7.430919",
    "Latitude": "47.730086",
    "Date de fin d'autorisation": null
},
{
    "Identifiant": "66143",
    "Numéro S3IC": null,
    "Commune": "CHATENAY-SUR-SEINE",
    "Site en activité": "Non",
    "Exploitation en eau": "Non",
    "Substances": "Sable, graviers",
    "Produits": "Granulat alluvionnaire",
    "Longitude": "3.110967",
    "Latitude": "48.420928",
    "Date de fin d'autorisation": null
},
{
    "Identifiant": "69402",
    "Numéro S3IC": "0051.03325",
    "Commune": "BOUTTENCOURT",
    "Site en activité": "Non",
    "Exploitation en eau": "Non",
    "Substances": "Sable, graviers",
    "Produits": "Granulat alluvionnaire",
    "Longitude": "1.586037",
    "Latitude": "49.964093",
    "Date de fin d'autorisation": null
},
{
    "Identifiant": "132617",
    "Numéro S3IC": null,
    "Commune": "CHATENOIS",
    "Site en activité": "Non",
    "Exploitation en eau": "Non",
    "Substances": "Sable, graviers, galets",
    "Produits": "Granulat alluvionnaire",
    "Longitude": "7.413866",
    "Latitude": "48.26148",
    "Date de fin d'autorisation": null
},
{
    "Identifiant": "88935",
    "Numéro S3IC": null,
    "Commune": "COULONVILLERS",
    "Site en activité": null,
    "Exploitation en eau": "Non",
    "Substances": null,
    "Produits": null,
    "Longitude": null,
    "Latitude": null,
    "Date de fin d'autorisation": null
},
{
    "Identifiant": "87279",
    "Numéro S3IC": null,
    "Commune": "ENNEMAIN",
    "Site en activité": "Non",
    "Exploitation en eau": "Non",
    "Substances": "Craie",
    "Produits": "Ciment",
    "Longitude": "2.961029",
    "Latitude": "49.842793",
    "Date de fin d'autorisation": "2000"
},
{
    "Identifiant": "132783",
    "Numéro S3IC": null,
    "Commune": "JEBSHEIM",
    "Site en activité": "Non",
    "Exploitation en eau": "Non",
    "Substances": "Sable, graviers, galets",
    "Produits": "Granulat alluvionnaire",
    "Longitude": "7.519878",
    "Latitude": "48.119784",
    "Date de fin d'autorisation": null
},
{
    "Identifiant": "87466",
    "Numéro S3IC": null,
    "Commune": "POMPIGNAN",
    "Site en activité": "Non",
    "Exploitation en eau": "Non",
    "Substances": "Roche calcaire",
    "Produits": "Pierres ornementales, Tuiles et briques",
    "Longitude": "3.904163",
    "Latitude": "43.890757",
    "Date de fin d'autorisation": "1998"
},
{
    "Identifiant": "133731",
    "Numéro S3IC": null,
    "Commune": "PLEUMEUR-BODOU",
    "Site en activité": "Non",
    "Exploitation en eau": "Non",
    "Substances": "Granite",
    "Produits": "Concassé de roche plutonique",
    "Longitude": "-3.511867",
    "Latitude": "48.79702",
    "Date de fin d'autorisation": null
},
{
    "Identifiant": "81555",
    "Numéro S3IC": null,
    "Commune": "PEROLS-SUR-VEZERE",
    "Site en activité": "Non",
    "Exploitation en eau": "Non",
    "Substances": "Roche plutonique",
    "Produits": null,
    "Longitude": "1.969666",
    "Latitude": "45.592867",
    "Date de fin d'autorisation": null
},
{
    "Identifiant": "135783",
    "Numéro S3IC": "0064.10854",
    "Commune": "MONTMAUR",
    "Site en activité": null,
    "Exploitation en eau": "Non",
    "Substances": null,
    "Produits": null,
    "Longitude": null,
    "Latitude": null,
    "Date de fin d'autorisation": null
},
{
    "Identifiant": "134407",
    "Numéro S3IC": null,
    "Commune": "LA LOUBIERE",
    "Site en activité": null,
    "Exploitation en eau": "Non",
    "Substances": "Barytine",
    "Produits": null,
    "Longitude": "2.657945",
    "Latitude": "44.366202",
    "Date de fin d'autorisation": null
},
{
    "Identifiant": "135421",
    "Numéro S3IC": null,
    "Commune": "SAINT-CLEMENT",
    "Site en activité": null,
    "Exploitation en eau": "Non",
    "Substances": null,
    "Produits": null,
    "Longitude": null,
    "Latitude": null,
    "Date de fin d'autorisation": null
},
{
    "Identifiant": "88156",
    "Numéro S3IC": "0071.00973",
    "Commune": "SAINT-ANDRE",
    "Site en activité": "Oui",
    "Exploitation en eau": "Non",
    "Substances": "Alluvion",
    "Produits": "Granulat alluvionnaire",
    "Longitude": "55.666437",
    "Latitude": "-20.928952",
    "Date de fin d'autorisation": "2013"
},
{
    "Identifiant": "103554",
    "Numéro S3IC": null,
    "Commune": "HOUDANCOURT",
    "Site en activité": "Non",
    "Exploitation en eau": "Non",
    "Substances": null,
    "Produits": null,
    "Longitude": "2.651373",
    "Latitude": "49.332168",
    "Date de fin d'autorisation": null
},
{
    "Identifiant": "103559",
    "Numéro S3IC": null,
    "Commune": "HOUDANCOURT",
    "Site en activité": "Non",
    "Exploitation en eau": "Non",
    "Substances": null,
    "Produits": null,
    "Longitude": "2.659519",
    "Latitude": "49.327468",
    "Date de fin d'autorisation": null
},
{
    "Identifiant": "103555",
    "Numéro S3IC": null,
    "Commune": "HOUDANCOURT",
    "Site en activité": "Non",
    "Exploitation en eau": "Non",
    "Substances": null,
    "Produits": null,
    "Longitude": "2.655196",
    "Latitude": "49.331853",
    "Date de fin d'autorisation": null
},
{
    "Identifiant": "103556",
    "Numéro S3IC": null,
    "Commune": "HOUDANCOURT",
    "Site en activité": "Non",
    "Exploitation en eau": "Non",
    "Substances": null,
    "Produits": null,
    "Longitude": "2.65811",
    "Latitude": "49.331674",
    "Date de fin d'autorisation": null
},
{
    "Identifiant": "103557",
    "Numéro S3IC": null,
    "Commune": "HOUDANCOURT",
    "Site en activité": "Non",
    "Exploitation en eau": "Non",
    "Substances": null,
    "Produits": null,
    "Longitude": "2.648622",
    "Latitude": "49.329965",
    "Date de fin d'autorisation": null
},
{
    "Identifiant": "103558",
    "Numéro S3IC": null,
    "Commune": "HOUDANCOURT",
    "Site en activité": "Non",
    "Exploitation en eau": "Non",
    "Substances": null,
    "Produits": null,
    "Longitude": "2.654317",
    "Latitude": "49.328911",
    "Date de fin d'autorisation": null
},
{
    "Identifiant": "104954",
    "Numéro S3IC": null,
    "Commune": "BRENOUILLE",
    "Site en activité": "Non",
    "Exploitation en eau": "Non",
    "Substances": null,
    "Produits": null,
    "Longitude": "2.572298",
    "Latitude": "49.309378",
    "Date de fin d'autorisation": null
},
{
    "Identifiant": "135679",
    "Numéro S3IC": null,
    "Commune": "FERQUES",
    "Site en activité": "Non",
    "Exploitation en eau": "Non",
    "Substances": null,
    "Produits": null,
    "Longitude": null,
    "Latitude": null,
    "Date de fin d'autorisation": "2003"
},
{
    "Identifiant": "85814",
    "Numéro S3IC": null,
    "Commune": "BRENOUILLE",
    "Site en activité": "Non",
    "Exploitation en eau": "Non",
    "Substances": "Sable, graviers",
    "Produits": null,
    "Longitude": "2.564155",
    "Latitude": "49.312666",
    "Date de fin d'autorisation": null
},
{
    "Identifiant": "82493",
    "Numéro S3IC": null,
    "Commune": "RINXENT",
    "Site en activité": "Non",
    "Exploitation en eau": "Non",
    "Substances": "Marbre",
    "Produits": null,
    "Longitude": "1.761826",
    "Latitude": "50.822447",
    "Date de fin d'autorisation": null
},
{
    "Identifiant": "82492",
    "Numéro S3IC": null,
    "Commune": "RINXENT",
    "Site en activité": "Non",
    "Exploitation en eau": "Non",
    "Substances": "Roche calcaire",
    "Produits": null,
    "Longitude": "1.753334",
    "Latitude": "50.820999",
    "Date de fin d'autorisation": null
},
{
    "Identifiant": "85600",
    "Numéro S3IC": null,
    "Commune": "LACHELLE",
    "Site en activité": "Non",
    "Exploitation en eau": "Non",
    "Substances": "Sable",
    "Produits": null,
    "Longitude": "2.733617",
    "Latitude": "49.432712",
    "Date de fin d'autorisation": null
},
{
    "Identifiant": "103564",
    "Numéro S3IC": null,
    "Commune": "LONGUEIL-SAINTE-MARIE",
    "Site en activité": "Non",
    "Exploitation en eau": "Non",
    "Substances": null,
    "Produits": null,
    "Longitude": "2.700451",
    "Latitude": "49.326164",
    "Date de fin d'autorisation": null
},
{
    "Identifiant": "103636",
    "Numéro S3IC": null,
    "Commune": "LACHELLE",
    "Site en activité": "Non",
    "Exploitation en eau": "Non",
    "Substances": null,
    "Produits": null,
    "Longitude": "2.728683",
    "Latitude": "49.43343",
    "Date de fin d'autorisation": null
},
{
    "Identifiant": "85367",
    "Numéro S3IC": null,
    "Commune": "CHEVINCOURT",
    "Site en activité": "Non",
    "Exploitation en eau": "Non",
    "Substances": null,
    "Produits": null,
    "Longitude": "2.851577",
    "Latitude": "49.528937",
    "Date de fin d'autorisation": null
},
{
    "Identifiant": "10148",
    "Numéro S3IC": null,
    "Commune": "ROCHY-CONDE",
    "Site en activité": "Non",
    "Exploitation en eau": "Non",
    "Substances": null,
    "Produits": null,
    "Longitude": "2.192082",
    "Latitude": "49.401743",
    "Date de fin d'autorisation": null
},
{
    "Identifiant": "9841",
    "Numéro S3IC": null,
    "Commune": "ROCHY-CONDE",
    "Site en activité": "Non",
    "Exploitation en eau": "Non",
    "Substances": null,
    "Produits": null,
    "Longitude": "2.201059",
    "Latitude": "49.400539",
    "Date de fin d'autorisation": null
},
{
    "Identifiant": "85737",
    "Numéro S3IC": null,
    "Commune": "LIERVILLE",
    "Site en activité": "Non",
    "Exploitation en eau": "Non",
    "Substances": "Sable",
    "Produits": null,
    "Longitude": "1.891784",
    "Latitude": "49.211764",
    "Date de fin d'autorisation": null
},
{
    "Identifiant": "85556",
    "Numéro S3IC": null,
    "Commune": "ROCHY-CONDE",
    "Site en activité": "Non",
    "Exploitation en eau": "Non",
    "Substances": null,
    "Produits": null,
    "Longitude": "2.200385",
    "Latitude": "49.4013",
    "Date de fin d'autorisation": null
},
{
    "Identifiant": "85569",
    "Numéro S3IC": null,
    "Commune": "ROCHY-CONDE",
    "Site en activité": "Non",
    "Exploitation en eau": "Non",
    "Substances": "Sable, graviers",
    "Produits": null,
    "Longitude": "2.167048",
    "Latitude": "49.396577",
    "Date de fin d'autorisation": null
},
{
    "Identifiant": "85573",
    "Numéro S3IC": null,
    "Commune": "ROCHY-CONDE",
    "Site en activité": "Non",
    "Exploitation en eau": "Non",
    "Substances": "Sable, graviers",
    "Produits": "Granulat alluvionnaire",
    "Longitude": "2.196662",
    "Latitude": "49.398412",
    "Date de fin d'autorisation": null
},
{
    "Identifiant": "104992",
    "Numéro S3IC": null,
    "Commune": "ALLONNE",
    "Site en activité": "Non",
    "Exploitation en eau": "Non",
    "Substances": null,
    "Produits": null,
    "Longitude": "2.148477",
    "Latitude": "49.40354",
    "Date de fin d'autorisation": null
},
{
    "Identifiant": "11467",
    "Numéro S3IC": null,
    "Commune": "ESTREES-LES-CRECY",
    "Site en activité": "Non",
    "Exploitation en eau": "Non",
    "Substances": null,
    "Produits": null,
    "Longitude": "1.908569",
    "Latitude": "50.252304",
    "Date de fin d'autorisation": null
},
{
    "Identifiant": "121957",
    "Numéro S3IC": null,
    "Commune": "AMBRONAY",
    "Site en activité": "Non",
    "Exploitation en eau": "Non",
    "Substances": null,
    "Produits": null,
    "Longitude": "5.329098",
    "Latitude": "46.011667",
    "Date de fin d'autorisation": null
},
{
    "Identifiant": "75968",
    "Numéro S3IC": null,
    "Commune": "FREYCENET-LA-CUCHE",
    "Site en activité": "Non",
    "Exploitation en eau": "Non",
    "Substances": "Roche volcanique",
    "Produits": null,
    "Longitude": "4.083906",
    "Latitude": "44.872372",
    "Date de fin d'autorisation": null
},
{
    "Identifiant": "75786",
    "Numéro S3IC": null,
    "Commune": "VERGONGHEON",
    "Site en activité": "Non",
    "Exploitation en eau": "Non",
    "Substances": "Argiles",
    "Produits": null,
    "Longitude": "3.319214",
    "Latitude": "45.361128",
    "Date de fin d'autorisation": null
},
{
    "Identifiant": "75789",
    "Numéro S3IC": null,
    "Commune": "VERGONGHEON",
    "Site en activité": "Non",
    "Exploitation en eau": "Non",
    "Substances": "Argiles",
    "Produits": null,
    "Longitude": "3.31807",
    "Latitude": "45.36856",
    "Date de fin d'autorisation": null
},
{
    "Identifiant": "75890",
    "Numéro S3IC": null,
    "Commune": "CHAVANIAC-LAFAYETTE",
    "Site en activité": "Non",
    "Exploitation en eau": "Non",
    "Substances": "Roche volcanique",
    "Produits": null,
    "Longitude": "3.592331",
    "Latitude": "45.154248",
    "Date de fin d'autorisation": null
},
{
    "Identifiant": "75891",
    "Numéro S3IC": null,
    "Commune": "VISSAC-AUTEYRAC",
    "Site en activité": "Non",
    "Exploitation en eau": "Non",
    "Substances": "Roche volcanique",
    "Produits": null,
    "Longitude": "3.579071",
    "Latitude": "45.09905",
    "Date de fin d'autorisation": null
},
{
    "Identifiant": "127351",
    "Numéro S3IC": "0100.02701",
    "Commune": "THIRON-GARDAIS",
    "Site en activité": "Non",
    "Exploitation en eau": "Non",
    "Substances": "Sable",
    "Produits": "Granulat alluvionnaire",
    "Longitude": "1.002484",
    "Latitude": "48.309613",
    "Date de fin d'autorisation": null
},
{
    "Identifiant": "75845",
    "Numéro S3IC": null,
    "Commune": "ALLEGRE",
    "Site en activité": "Non",
    "Exploitation en eau": "Non",
    "Substances": "Roche volcanique",
    "Produits": null,
    "Longitude": "3.699566",
    "Latitude": "45.187784",
    "Date de fin d'autorisation": null
},
{
    "Identifiant": "97076",
    "Numéro S3IC": null,
    "Commune": "LES ALBRES",
    "Site en activité": "Non",
    "Exploitation en eau": "Non",
    "Substances": "Roche métamorphique",
    "Produits": null,
    "Longitude": "2.205036",
    "Latitude": "44.5492",
    "Date de fin d'autorisation": null
},
{
    "Identifiant": "96420",
    "Numéro S3IC": null,
    "Commune": "VERS-PONT-DU-GARD",
    "Site en activité": "Non",
    "Exploitation en eau": "Non",
    "Substances": "Grès",
    "Produits": null,
    "Longitude": "4.524793",
    "Latitude": "43.97234",
    "Date de fin d'autorisation": null
},
{
    "Identifiant": "128141",
    "Numéro S3IC": "0061.00534",
    "Commune": "CHAROLS",
    "Site en activité": "Non",
    "Exploitation en eau": "Non",
    "Substances": "Graviers, galets",
    "Produits": "Granulat alluvionnaire",
    "Longitude": "4.958557",
    "Latitude": "44.590978",
    "Date de fin d'autorisation": null
},
{
    "Identifiant": "127801",
    "Numéro S3IC": "0061.01485",
    "Commune": "SEREZIN-DU-RHONE",
    "Site en activité": "Non",
    "Exploitation en eau": "Non",
    "Substances": "Sable, graviers",
    "Produits": null,
    "Longitude": "4.824854",
    "Latitude": "45.622575",
    "Date de fin d'autorisation": null
},
{
    "Identifiant": "73911",
    "Numéro S3IC": null,
    "Commune": "LOHR",
    "Site en activité": "Non",
    "Exploitation en eau": "Non",
    "Substances": null,
    "Produits": null,
    "Longitude": null,
    "Latitude": null,
    "Date de fin d'autorisation": null
},
{
    "Identifiant": "96438",
    "Numéro S3IC": null,
    "Commune": "ROSIS",
    "Site en activité": "Non",
    "Exploitation en eau": "Non",
    "Substances": "Roche plutonique",
    "Produits": null,
    "Longitude": "3.021585",
    "Latitude": "43.605106",
    "Date de fin d'autorisation": null
},
{
    "Identifiant": "64827",
    "Numéro S3IC": "0067.00093",
    "Commune": "LINGOLSHEIM",
    "Site en activité": "Oui",
    "Exploitation en eau": "Non",
    "Substances": "Alluvion",
    "Produits": "Granulat alluvionnaire",
    "Longitude": "7.669286",
    "Latitude": "48.546448999999996",
    "Date de fin d'autorisation": null
},
{
    "Identifiant": "96905",
    "Numéro S3IC": null,
    "Commune": "VENDRES",
    "Site en activité": "Non",
    "Exploitation en eau": "Non",
    "Substances": "Roche calcaire",
    "Produits": null,
    "Longitude": "3.214052",
    "Latitude": "43.298174",
    "Date de fin d'autorisation": null
},
{
    "Identifiant": "88700",
    "Numéro S3IC": "0066.03715",
    "Commune": "MAS-SAINTES-PUELLES",
    "Site en activité": "Oui",
    "Exploitation en eau": "Non",
    "Substances": "Sable, graviers",
    "Produits": null,
    "Longitude": "1.866666",
    "Latitude": "43.32295",
    "Date de fin d'autorisation": "2024"
},
{
    "Identifiant": "87660",
    "Numéro S3IC": "0064.01385",
    "Commune": "LES BAUX-DE-PROVENCE",
    "Site en activité": "Oui",
    "Exploitation en eau": "Oui",
    "Substances": "Roche calcaire",
    "Produits": "Calcaire (PO)",
    "Longitude": "4.790164",
    "Latitude": "43.748929",
    "Date de fin d'autorisation": "2034"
},
{
    "Identifiant": "96189",
    "Numéro S3IC": null,
    "Commune": "SAINT-PANDELON",
    "Site en activité": "Non",
    "Exploitation en eau": "Non",
    "Substances": null,
    "Produits": null,
    "Longitude": null,
    "Latitude": null,
    "Date de fin d'autorisation": null
},
{
    "Identifiant": "36661",
    "Numéro S3IC": null,
    "Commune": "NORROY",
    "Site en activité": "Non",
    "Exploitation en eau": "Non",
    "Substances": null,
    "Produits": null,
    "Longitude": "5.912816",
    "Latitude": "48.223822",
    "Date de fin d'autorisation": null
},
{
    "Identifiant": "38048",
    "Numéro S3IC": null,
    "Commune": "BENNEY",
    "Site en activité": "Non",
    "Exploitation en eau": "Non",
    "Substances": null,
    "Produits": null,
    "Longitude": "6.252339",
    "Latitude": "48.537684",
    "Date de fin d'autorisation": null
},
{
    "Identifiant": "38075",
    "Numéro S3IC": null,
    "Commune": "ROSIERES-AUX-SALINES",
    "Site en activité": "Non",
    "Exploitation en eau": "Non",
    "Substances": null,
    "Produits": null,
    "Longitude": "6.329539",
    "Latitude": "48.59349",
    "Date de fin d'autorisation": null
},
{
    "Identifiant": "38076",
    "Numéro S3IC": null,
    "Commune": "ROSIERES-AUX-SALINES",
    "Site en activité": "Non",
    "Exploitation en eau": "Non",
    "Substances": null,
    "Produits": null,
    "Longitude": "6.329002",
    "Latitude": "48.59722",
    "Date de fin d'autorisation": null
},
{
    "Identifiant": "34738",
    "Numéro S3IC": null,
    "Commune": "LEY",
    "Site en activité": "Non",
    "Exploitation en eau": "Non",
    "Substances": null,
    "Produits": null,
    "Longitude": "6.64248",
    "Latitude": "48.751352",
    "Date de fin d'autorisation": null
},
{
    "Identifiant": "34737",
    "Numéro S3IC": null,
    "Commune": "MOUACOURT",
    "Site en activité": "Non",
    "Exploitation en eau": "Non",
    "Substances": null,
    "Produits": null,
    "Longitude": "6.623763",
    "Latitude": "48.685667",
    "Date de fin d'autorisation": null
},
{
    "Identifiant": "33921",
    "Numéro S3IC": null,
    "Commune": "ONNAING",
    "Site en activité": "Non",
    "Exploitation en eau": "Non",
    "Substances": null,
    "Produits": null,
    "Longitude": null,
    "Latitude": null,
    "Date de fin d'autorisation": null
},
{
    "Identifiant": "53869",
    "Numéro S3IC": null,
    "Commune": "SAINT-PANDELON",
    "Site en activité": "Non",
    "Exploitation en eau": "Non",
    "Substances": null,
    "Produits": null,
    "Longitude": "-1.021852",
    "Latitude": "43.666853",
    "Date de fin d'autorisation": null
},
{
    "Identifiant": "62779",
    "Numéro S3IC": null,
    "Commune": "SAINT-VICTOR-DES-OULES",
    "Site en activité": "Non",
    "Exploitation en eau": "Non",
    "Substances": null,
    "Produits": null,
    "Longitude": null,
    "Latitude": null,
    "Date de fin d'autorisation": null
},
{
    "Identifiant": "42519",
    "Numéro S3IC": null,
    "Commune": "SAINT-PIERRE-MONTLIMART",
    "Site en activité": "Non",
    "Exploitation en eau": "Non",
    "Substances": null,
    "Produits": null,
    "Longitude": "-1.030554",
    "Latitude": "47.266114",
    "Date de fin d'autorisation": null
},
{
    "Identifiant": "46981",
    "Numéro S3IC": null,
    "Commune": "BAINS-SUR-OUST",
    "Site en activité": "Non",
    "Exploitation en eau": "Non",
    "Substances": null,
    "Produits": null,
    "Longitude": "-2.066567",
    "Latitude": "47.723841",
    "Date de fin d'autorisation": null
},
{
    "Identifiant": "95540",
    "Numéro S3IC": null,
    "Commune": "SAINT-RIQUIER-EN-RIVIERE",
    "Site en activité": "Non",
    "Exploitation en eau": "Non",
    "Substances": null,
    "Produits": null,
    "Longitude": "1.558853",
    "Latitude": "49.885936",
    "Date de fin d'autorisation": null
},
{
    "Identifiant": "33870",
    "Numéro S3IC": null,
    "Commune": "HEM-LENGLET",
    "Site en activité": "Non",
    "Exploitation en eau": "Non",
    "Substances": null,
    "Produits": null,
    "Longitude": "3.211579",
    "Latitude": "50.25266",
    "Date de fin d'autorisation": null
},
{
    "Identifiant": "34239",
    "Numéro S3IC": null,
    "Commune": "HABARCQ",
    "Site en activité": "Non",
    "Exploitation en eau": "Non",
    "Substances": null,
    "Produits": null,
    "Longitude": "2.618816",
    "Latitude": "50.318917",
    "Date de fin d'autorisation": null
},
{
    "Identifiant": "13659",
    "Numéro S3IC": null,
    "Commune": "LA HOUSSAYE",
    "Site en activité": "Non",
    "Exploitation en eau": "Non",
    "Substances": null,
    "Produits": null,
    "Longitude": "0.784491",
    "Latitude": "49.002454",
    "Date de fin d'autorisation": null
},
{
    "Identifiant": "18738",
    "Numéro S3IC": null,
    "Commune": "TROUY",
    "Site en activité": "Non",
    "Exploitation en eau": "Non",
    "Substances": null,
    "Produits": null,
    "Longitude": "2.385773",
    "Latitude": "47.045907",
    "Date de fin d'autorisation": null
},
{
    "Identifiant": "20415",
    "Numéro S3IC": null,
    "Commune": "ROMORANTIN-LANTHENAY",
    "Site en activité": "Non",
    "Exploitation en eau": "Non",
    "Substances": null,
    "Produits": null,
    "Longitude": "1.735674",
    "Latitude": "47.343087",
    "Date de fin d'autorisation": null
},
{
    "Identifiant": "20455",
    "Numéro S3IC": null,
    "Commune": "SOINGS-EN-SOLOGNE",
    "Site en activité": "Non",
    "Exploitation en eau": "Non",
    "Substances": null,
    "Produits": null,
    "Longitude": "1.500772",
    "Latitude": "47.388551",
    "Date de fin d'autorisation": null
},
{
    "Identifiant": "20458",
    "Numéro S3IC": null,
    "Commune": "SASSAY",
    "Site en activité": "Non",
    "Exploitation en eau": "Non",
    "Substances": null,
    "Produits": null,
    "Longitude": "1.459083",
    "Latitude": "47.393635",
    "Date de fin d'autorisation": null
},
{
    "Identifiant": "118250",
    "Numéro S3IC": null,
    "Commune": "SAINTS-GEOSMES",
    "Site en activité": "Non",
    "Exploitation en eau": "Non",
    "Substances": "Roche calcaire",
    "Produits": null,
    "Longitude": "5.306986",
    "Latitude": "47.829683",
    "Date de fin d'autorisation": null
},
{
    "Identifiant": "118245",
    "Numéro S3IC": null,
    "Commune": "SAINTS-GEOSMES",
    "Site en activité": "Non",
    "Exploitation en eau": "Non",
    "Substances": "Roche calcaire",
    "Produits": null,
    "Longitude": "5.306159",
    "Latitude": "47.83068",
    "Date de fin d'autorisation": null
},
{
    "Identifiant": "118251",
    "Numéro S3IC": null,
    "Commune": "SAINTS-GEOSMES",
    "Site en activité": "Non",
    "Exploitation en eau": "Non",
    "Substances": "Roche calcaire",
    "Produits": null,
    "Longitude": "5.307813",
    "Latitude": "47.830437",
    "Date de fin d'autorisation": null
},
{
    "Identifiant": "118242",
    "Numéro S3IC": null,
    "Commune": "SAINTS-GEOSMES",
    "Site en activité": "Non",
    "Exploitation en eau": "Non",
    "Substances": "Roche calcaire",
    "Produits": null,
    "Longitude": "5.306095",
    "Latitude": "47.831865",
    "Date de fin d'autorisation": null
},
{
    "Identifiant": "118247",
    "Numéro S3IC": null,
    "Commune": "SAINTS-GEOSMES",
    "Site en activité": "Non",
    "Exploitation en eau": "Non",
    "Substances": "Roche calcaire",
    "Produits": null,
    "Longitude": "5.308952",
    "Latitude": "47.830034",
    "Date de fin d'autorisation": null
},
{
    "Identifiant": "118241",
    "Numéro S3IC": null,
    "Commune": "SAINTS-GEOSMES",
    "Site en activité": "Non",
    "Exploitation en eau": "Non",
    "Substances": "Roche calcaire",
    "Produits": null,
    "Longitude": "5.306666",
    "Latitude": "47.832293",
    "Date de fin d'autorisation": null
},
{
    "Identifiant": "118244",
    "Numéro S3IC": null,
    "Commune": "SAINTS-GEOSMES",
    "Site en activité": "Non",
    "Exploitation en eau": "Non",
    "Substances": "Roche calcaire",
    "Produits": null,
    "Longitude": "5.305484",
    "Latitude": "47.831045",
    "Date de fin d'autorisation": null
},
{
    "Identifiant": "118246",
    "Numéro S3IC": null,
    "Commune": "SAINTS-GEOSMES",
    "Site en activité": "Non",
    "Exploitation en eau": "Non",
    "Substances": "Roche calcaire",
    "Produits": null,
    "Longitude": "5.306593",
    "Latitude": "47.830295",
    "Date de fin d'autorisation": null
},
{
    "Identifiant": "118253",
    "Numéro S3IC": null,
    "Commune": "SAINTS-GEOSMES",
    "Site en activité": "Non",
    "Exploitation en eau": "Non",
    "Substances": "Roche calcaire",
    "Produits": null,
    "Longitude": "5.30748",
    "Latitude": "47.831216",
    "Date de fin d'autorisation": null
},
{
    "Identifiant": "118252",
    "Numéro S3IC": null,
    "Commune": "SAINTS-GEOSMES",
    "Site en activité": "Non",
    "Exploitation en eau": "Non",
    "Substances": "Roche calcaire",
    "Produits": null,
    "Longitude": "5.306739",
    "Latitude": "47.831308",
    "Date de fin d'autorisation": null
},
{
    "Identifiant": "118248",
    "Numéro S3IC": null,
    "Commune": "SAINTS-GEOSMES",
    "Site en activité": "Non",
    "Exploitation en eau": "Non",
    "Substances": "Roche calcaire",
    "Produits": null,
    "Longitude": "5.308186",
    "Latitude": "47.82984",
    "Date de fin d'autorisation": null
},
{
    "Identifiant": "118243",
    "Numéro S3IC": null,
    "Commune": "SAINTS-GEOSMES",
    "Site en activité": "Non",
    "Exploitation en eau": "Non",
    "Substances": "Roche calcaire",
    "Produits": null,
    "Longitude": "5.305561",
    "Latitude": "47.831545",
    "Date de fin d'autorisation": null
},
{
    "Identifiant": "118249",
    "Numéro S3IC": null,
    "Commune": "SAINTS-GEOSMES",
    "Site en activité": "Non",
    "Exploitation en eau": "Non",
    "Substances": "Roche calcaire",
    "Produits": null,
    "Longitude": "5.307602",
    "Latitude": "47.82968",
    "Date de fin d'autorisation": null
},
{
    "Identifiant": "2712",
    "Numéro S3IC": null,
    "Commune": "BERVILLE",
    "Site en activité": "Non",
    "Exploitation en eau": "Non",
    "Substances": "Silt, limon",
    "Produits": "Terre cuite",
    "Longitude": "2.064733",
    "Latitude": "49.184124",
    "Date de fin d'autorisation": null
},
{
    "Identifiant": "2711",
    "Numéro S3IC": null,
    "Commune": "LE BELLAY-EN-VEXIN",
    "Site en activité": "Non",
    "Exploitation en eau": "Non",
    "Substances": "Silt, limon",
    "Produits": "Terre cuite",
    "Longitude": "1.889739",
    "Latitude": "49.150982",
    "Date de fin d'autorisation": null
},
{
    "Identifiant": "2710",
    "Numéro S3IC": null,
    "Commune": "LE BELLAY-EN-VEXIN",
    "Site en activité": "Non",
    "Exploitation en eau": "Non",
    "Substances": "Silt, limon",
    "Produits": "Terre cuite",
    "Longitude": "1.887948",
    "Latitude": "49.160279",
    "Date de fin d'autorisation": null
},
{
    "Identifiant": "44160",
    "Numéro S3IC": null,
    "Commune": "ABBARETZ",
    "Site en activité": "Non",
    "Exploitation en eau": "Non",
    "Substances": null,
    "Produits": null,
    "Longitude": "-1.465045",
    "Latitude": "47.533496",
    "Date de fin d'autorisation": null
},
{
    "Identifiant": "44159",
    "Numéro S3IC": null,
    "Commune": "PUCEUL",
    "Site en activité": "Non",
    "Exploitation en eau": "Non",
    "Substances": null,
    "Produits": null,
    "Longitude": "-1.584437",
    "Latitude": "47.535522",
    "Date de fin d'autorisation": null
},
{
    "Identifiant": "44165",
    "Numéro S3IC": null,
    "Commune": "ABBARETZ",
    "Site en activité": "Non",
    "Exploitation en eau": "Non",
    "Substances": null,
    "Produits": null,
    "Longitude": "-1.457231",
    "Latitude": "47.5615",
    "Date de fin d'autorisation": null
},
{
    "Identifiant": "44181",
    "Numéro S3IC": null,
    "Commune": "NOZAY",
    "Site en activité": "Non",
    "Exploitation en eau": "Non",
    "Substances": null,
    "Produits": null,
    "Longitude": "-1.61271",
    "Latitude": "47.546429",
    "Date de fin d'autorisation": null
},
{
    "Identifiant": "44179",
    "Numéro S3IC": null,
    "Commune": "NOZAY",
    "Site en activité": "Non",
    "Exploitation en eau": "Non",
    "Substances": null,
    "Produits": null,
    "Longitude": "-1.589771",
    "Latitude": "47.557431",
    "Date de fin d'autorisation": null
},
{
    "Identifiant": "44163",
    "Numéro S3IC": null,
    "Commune": "ABBARETZ",
    "Site en activité": "Non",
    "Exploitation en eau": "Non",
    "Substances": null,
    "Produits": null,
    "Longitude": "-1.453762",
    "Latitude": "47.554668",
    "Date de fin d'autorisation": null
},
{
    "Identifiant": "44187",
    "Numéro S3IC": null,
    "Commune": "LE GAVRE",
    "Site en activité": "Non",
    "Exploitation en eau": "Non",
    "Substances": null,
    "Produits": null,
    "Longitude": "-1.780837",
    "Latitude": "47.557194",
    "Date de fin d'autorisation": null
},
{
    "Identifiant": "44188",
    "Numéro S3IC": null,
    "Commune": "LE GAVRE",
    "Site en activité": "Non",
    "Exploitation en eau": "Non",
    "Substances": null,
    "Produits": null,
    "Longitude": "-1.776974",
    "Latitude": "47.557802",
    "Date de fin d'autorisation": null
},
{
    "Identifiant": "44192",
    "Numéro S3IC": null,
    "Commune": "NOZAY",
    "Site en activité": "Non",
    "Exploitation en eau": "Non",
    "Substances": null,
    "Produits": null,
    "Longitude": "-1.63442",
    "Latitude": "47.563425",
    "Date de fin d'autorisation": null
},
{
    "Identifiant": "44176",
    "Numéro S3IC": null,
    "Commune": "ABBARETZ",
    "Site en activité": "Non",
    "Exploitation en eau": "Non",
    "Substances": null,
    "Produits": null,
    "Longitude": "-1.542344",
    "Latitude": "47.553024",
    "Date de fin d'autorisation": null
},
{
    "Identifiant": "44189",
    "Numéro S3IC": null,
    "Commune": "LE GAVRE",
    "Site en activité": "Non",
    "Exploitation en eau": "Non",
    "Substances": null,
    "Produits": null,
    "Longitude": "-1.749878",
    "Latitude": "47.570805",
    "Date de fin d'autorisation": null
},
{
    "Identifiant": "44205",
    "Numéro S3IC": null,
    "Commune": "ABBARETZ",
    "Site en activité": "Non",
    "Exploitation en eau": "Non",
    "Substances": null,
    "Produits": null,
    "Longitude": "-1.472528",
    "Latitude": "47.576664",
    "Date de fin d'autorisation": null
},
{
    "Identifiant": "44210",
    "Numéro S3IC": null,
    "Commune": "ABBARETZ",
    "Site en activité": "Non",
    "Exploitation en eau": "Non",
    "Substances": null,
    "Produits": null,
    "Longitude": "-1.444497",
    "Latitude": "47.571094",
    "Date de fin d'autorisation": null
},
{
    "Identifiant": "44207",
    "Numéro S3IC": null,
    "Commune": "ABBARETZ",
    "Site en activité": "Non",
    "Exploitation en eau": "Non",
    "Substances": null,
    "Produits": null,
    "Longitude": "-1.447907",
    "Latitude": "47.576565",
    "Date de fin d'autorisation": null
},
{
    "Identifiant": "44212",
    "Numéro S3IC": null,
    "Commune": "ISSE",
    "Site en activité": "Non",
    "Exploitation en eau": "Non",
    "Substances": null,
    "Produits": null,
    "Longitude": "-1.450978",
    "Latitude": "47.605811",
    "Date de fin d'autorisation": null
},
{
    "Identifiant": "44228",
    "Numéro S3IC": null,
    "Commune": "CONQUEREUIL",
    "Site en activité": "Non",
    "Exploitation en eau": "Non",
    "Substances": "Argiles",
    "Produits": "Tuiles et briques",
    "Longitude": "-1.765515",
    "Latitude": "47.656702",
    "Date de fin d'autorisation": null
},
{
    "Identifiant": "44237",
    "Numéro S3IC": null,
    "Commune": "SAINT-VINCENT-DES-LANDES",
    "Site en activité": "Non",
    "Exploitation en eau": "Non",
    "Substances": null,
    "Produits": null,
    "Longitude": "-1.52711",
    "Latitude": "47.683014",
    "Date de fin d'autorisation": null
},
{
    "Identifiant": "44238",
    "Numéro S3IC": null,
    "Commune": "SAINT-VINCENT-DES-LANDES",
    "Site en activité": "Non",
    "Exploitation en eau": "Non",
    "Substances": null,
    "Produits": null,
    "Longitude": "-1.528857",
    "Latitude": "47.683034",
    "Date de fin d'autorisation": null
},
{
    "Identifiant": "44240",
    "Numéro S3IC": null,
    "Commune": "LUSANGER",
    "Site en activité": "Non",
    "Exploitation en eau": "Non",
    "Substances": null,
    "Produits": null,
    "Longitude": "-1.556855",
    "Latitude": "47.683463",
    "Date de fin d'autorisation": null
},
{
    "Identifiant": "44251",
    "Numéro S3IC": null,
    "Commune": "LUSANGER",
    "Site en activité": "Non",
    "Exploitation en eau": "Non",
    "Substances": null,
    "Produits": null,
    "Longitude": "-1.577186",
    "Latitude": "47.688356",
    "Date de fin d'autorisation": null
},
{
    "Identifiant": "44253",
    "Numéro S3IC": null,
    "Commune": "SAINT-AUBIN-DES-CHATEAUX",
    "Site en activité": "Non",
    "Exploitation en eau": "Non",
    "Substances": null,
    "Produits": null,
    "Longitude": "-1.445282",
    "Latitude": "47.69424",
    "Date de fin d'autorisation": null
},
{
    "Identifiant": "44252",
    "Numéro S3IC": null,
    "Commune": "LUSANGER",
    "Site en activité": "Non",
    "Exploitation en eau": "Non",
    "Substances": null,
    "Produits": null,
    "Longitude": "-1.552427",
    "Latitude": "47.692686",
    "Date de fin d'autorisation": null
},
{
    "Identifiant": "44312",
    "Numéro S3IC": null,
    "Commune": "RUFFIGNE",
    "Site en activité": "Non",
    "Exploitation en eau": "Non",
    "Substances": null,
    "Produits": null,
    "Longitude": "-1.574572",
    "Latitude": "47.777094",
    "Date de fin d'autorisation": null
},
{
    "Identifiant": "44314",
    "Numéro S3IC": null,
    "Commune": "RUFFIGNE",
    "Site en activité": "Non",
    "Exploitation en eau": "Non",
    "Substances": null,
    "Produits": null,
    "Longitude": "-1.581552",
    "Latitude": "47.76635",
    "Date de fin d'autorisation": null
},
{
    "Identifiant": "44315",
    "Numéro S3IC": null,
    "Commune": "RUFFIGNE",
    "Site en activité": "Non",
    "Exploitation en eau": "Non",
    "Substances": null,
    "Produits": null,
    "Longitude": "-1.551955",
    "Latitude": "47.773317",
    "Date de fin d'autorisation": null
},
{
    "Identifiant": "44316",
    "Numéro S3IC": null,
    "Commune": "RUFFIGNE",
    "Site en activité": "Non",
    "Exploitation en eau": "Non",
    "Substances": null,
    "Produits": null,
    "Longitude": "-1.541605",
    "Latitude": "47.775314",
    "Date de fin d'autorisation": null
},
{
    "Identifiant": "44313",
    "Numéro S3IC": null,
    "Commune": "RUFFIGNE",
    "Site en activité": "Non",
    "Exploitation en eau": "Non",
    "Substances": null,
    "Produits": null,
    "Longitude": "-1.576362",
    "Latitude": "47.776588",
    "Date de fin d'autorisation": null
},
{
    "Identifiant": "44325",
    "Numéro S3IC": null,
    "Commune": "ROUGE",
    "Site en activité": "Non",
    "Exploitation en eau": "Non",
    "Substances": null,
    "Produits": null,
    "Longitude": "-1.464877",
    "Latitude": "47.787754",
    "Date de fin d'autorisation": null
},
{
    "Identifiant": "44206",
    "Numéro S3IC": null,
    "Commune": "ABBARETZ",
    "Site en activité": "Non",
    "Exploitation en eau": "Non",
    "Substances": null,
    "Produits": null,
    "Longitude": "-1.46611",
    "Latitude": "47.576822",
    "Date de fin d'autorisation": null
},
{
    "Identifiant": "64551",
    "Numéro S3IC": null,
    "Commune": "FONTAN",
    "Site en activité": "Non",
    "Exploitation en eau": "Non",
    "Substances": null,
    "Produits": null,
    "Longitude": "7.554714",
    "Latitude": "44.001087",
    "Date de fin d'autorisation": null
},
{
    "Identifiant": "64553",
    "Numéro S3IC": null,
    "Commune": "FONTAN",
    "Site en activité": "Non",
    "Exploitation en eau": "Non",
    "Substances": null,
    "Produits": null,
    "Longitude": "7.551722",
    "Latitude": "43.998565",
    "Date de fin d'autorisation": null
},
{
    "Identifiant": "64554",
    "Numéro S3IC": null,
    "Commune": "BREIL-SUR-ROYA",
    "Site en activité": "Non",
    "Exploitation en eau": "Non",
    "Substances": null,
    "Produits": null,
    "Longitude": "7.515437",
    "Latitude": "43.944163",
    "Date de fin d'autorisation": null
},
{
    "Identifiant": "64558",
    "Numéro S3IC": null,
    "Commune": "TENDE",
    "Site en activité": "Non",
    "Exploitation en eau": "Non",
    "Substances": null,
    "Produits": null,
    "Longitude": "7.549551",
    "Latitude": "44.138143",
    "Date de fin d'autorisation": null
},
{
    "Identifiant": "64557",
    "Numéro S3IC": null,
    "Commune": "TENDE",
    "Site en activité": "Non",
    "Exploitation en eau": "Non",
    "Substances": null,
    "Produits": null,
    "Longitude": "7.554347",
    "Latitude": "44.050772",
    "Date de fin d'autorisation": null
},
{
    "Identifiant": "64206",
    "Numéro S3IC": null,
    "Commune": "VALDEBLORE",
    "Site en activité": "Non",
    "Exploitation en eau": "Non",
    "Substances": null,
    "Produits": null,
    "Longitude": "7.191575",
    "Latitude": "44.147486",
    "Date de fin d'autorisation": null
},
{
    "Identifiant": "64207",
    "Numéro S3IC": null,
    "Commune": "VALDEBLORE",
    "Site en activité": "Non",
    "Exploitation en eau": "Non",
    "Substances": null,
    "Produits": null,
    "Longitude": "7.188234",
    "Latitude": "44.149286",
    "Date de fin d'autorisation": null
},
{
    "Identifiant": "64208",
    "Numéro S3IC": null,
    "Commune": "VALDEBLORE",
    "Site en activité": "Non",
    "Exploitation en eau": "Non",
    "Substances": null,
    "Produits": null,
    "Longitude": "7.174942",
    "Latitude": "44.146285",
    "Date de fin d'autorisation": null
},
{
    "Identifiant": "64550",
    "Numéro S3IC": null,
    "Commune": "FONTAN",
    "Site en activité": "Non",
    "Exploitation en eau": "Non",
    "Substances": null,
    "Produits": null,
    "Longitude": "7.553889",
    "Latitude": "44.01502",
    "Date de fin d'autorisation": null
},
{
    "Identifiant": "64552",
    "Numéro S3IC": null,
    "Commune": "FONTAN",
    "Site en activité": "Non",
    "Exploitation en eau": "Non",
    "Substances": null,
    "Produits": null,
    "Longitude": "7.551662",
    "Latitude": "43.995687",
    "Date de fin d'autorisation": null
},
{
    "Identifiant": "64555",
    "Numéro S3IC": null,
    "Commune": "TENDE",
    "Site en activité": "Non",
    "Exploitation en eau": "Non",
    "Substances": null,
    "Produits": null,
    "Longitude": "7.513813",
    "Latitude": "44.070398",
    "Date de fin d'autorisation": null
},
{
    "Identifiant": "64556",
    "Numéro S3IC": null,
    "Commune": "TENDE",
    "Site en activité": "Non",
    "Exploitation en eau": "Non",
    "Substances": null,
    "Produits": null,
    "Longitude": "7.536892",
    "Latitude": "44.065986",
    "Date de fin d'autorisation": null
},
{
    "Identifiant": "98228",
    "Numéro S3IC": null,
    "Commune": "ROQUEVAIRE",
    "Site en activité": "Non",
    "Exploitation en eau": "Non",
    "Substances": "Sable",
    "Produits": null,
    "Longitude": "5.608869",
    "Latitude": "43.356423",
    "Date de fin d'autorisation": null
},
{
    "Identifiant": "27251",
    "Numéro S3IC": null,
    "Commune": "SAINT-ELOI",
    "Site en activité": "Non",
    "Exploitation en eau": "Non",
    "Substances": "Meulière, cargneule",
    "Produits": "Concassé de roche calcaire",
    "Longitude": "3.229725",
    "Latitude": "46.97294",
    "Date de fin d'autorisation": null
},
{
    "Identifiant": "26274",
    "Numéro S3IC": null,
    "Commune": "ANDRYES",
    "Site en activité": "Non",
    "Exploitation en eau": "Non",
    "Substances": null,
    "Produits": null,
    "Longitude": "3.489027",
    "Latitude": "47.55671",
    "Date de fin d'autorisation": null
},
{
    "Identifiant": "26278",
    "Numéro S3IC": null,
    "Commune": "ANDRYES",
    "Site en activité": "Non",
    "Exploitation en eau": "Non",
    "Substances": null,
    "Produits": null,
    "Longitude": "3.472026",
    "Latitude": "47.546364",
    "Date de fin d'autorisation": null
},
{
    "Identifiant": "26279",
    "Numéro S3IC": null,
    "Commune": "COULANGES-SUR-YONNE",
    "Site en activité": "Non",
    "Exploitation en eau": "Non",
    "Substances": null,
    "Produits": null,
    "Longitude": "3.502185",
    "Latitude": "47.567382",
    "Date de fin d'autorisation": null
},
{
    "Identifiant": "27136",
    "Numéro S3IC": null,
    "Commune": "SAINT-ELOI",
    "Site en activité": "Non",
    "Exploitation en eau": "Non",
    "Substances": null,
    "Produits": null,
    "Longitude": "3.229936",
    "Latitude": "46.971788",
    "Date de fin d'autorisation": null
},
{
    "Identifiant": "27137",
    "Numéro S3IC": null,
    "Commune": "SAINT-ELOI",
    "Site en activité": "Non",
    "Exploitation en eau": "Non",
    "Substances": null,
    "Produits": null,
    "Longitude": "3.231444",
    "Latitude": "46.964482",
    "Date de fin d'autorisation": null
},
{
    "Identifiant": "27238",
    "Numéro S3IC": null,
    "Commune": "SAUVIGNY-LES-BOIS",
    "Site en activité": "Non",
    "Exploitation en eau": "Non",
    "Substances": null,
    "Produits": null,
    "Longitude": "3.234603",
    "Latitude": "46.9635",
    "Date de fin d'autorisation": null
},
{
    "Identifiant": "27249",
    "Numéro S3IC": null,
    "Commune": "SAINT-ELOI",
    "Site en activité": "Non",
    "Exploitation en eau": "Non",
    "Substances": "Meulière, cargneule",
    "Produits": "Concassé de roche calcaire",
    "Longitude": "3.229378",
    "Latitude": "46.976285",
    "Date de fin d'autorisation": null
},
{
    "Identifiant": "27250",
    "Numéro S3IC": null,
    "Commune": "SAINT-ELOI",
    "Site en activité": "Non",
    "Exploitation en eau": "Non",
    "Substances": "Meulière, cargneule",
    "Produits": "Concassé de roche calcaire",
    "Longitude": "3.229721",
    "Latitude": "46.974354",
    "Date de fin d'autorisation": null
},
{
    "Identifiant": "27247",
    "Numéro S3IC": null,
    "Commune": "SAINT-ELOI",
    "Site en activité": "Non",
    "Exploitation en eau": "Non",
    "Substances": "Meulière, cargneule",
    "Produits": "Concassé de roche calcaire",
    "Longitude": "3.229339",
    "Latitude": "46.974742",
    "Date de fin d'autorisation": null
},
{
    "Identifiant": "27255",
    "Numéro S3IC": null,
    "Commune": "SAUVIGNY-LES-BOIS",
    "Site en activité": "Non",
    "Exploitation en eau": "Non",
    "Substances": "Meulière, cargneule",
    "Produits": "Concassé de roche calcaire",
    "Longitude": "3.232031",
    "Latitude": "46.959573",
    "Date de fin d'autorisation": null
},
{
    "Identifiant": "27256",
    "Numéro S3IC": null,
    "Commune": "SAUVIGNY-LES-BOIS",
    "Site en activité": "Non",
    "Exploitation en eau": "Non",
    "Substances": "Meulière, cargneule",
    "Produits": "Concassé de roche calcaire",
    "Longitude": "3.23211",
    "Latitude": "46.9581",
    "Date de fin d'autorisation": null
},
{
    "Identifiant": "27248",
    "Numéro S3IC": null,
    "Commune": "SAINT-ELOI",
    "Site en activité": "Non",
    "Exploitation en eau": "Non",
    "Substances": "Meulière, cargneule",
    "Produits": "Concassé de roche calcaire",
    "Longitude": "3.229388",
    "Latitude": "46.977671",
    "Date de fin d'autorisation": null
},
{
    "Identifiant": "27259",
    "Numéro S3IC": null,
    "Commune": "SAUVIGNY-LES-BOIS",
    "Site en activité": "Non",
    "Exploitation en eau": "Non",
    "Substances": "Meulière, cargneule",
    "Produits": "Concassé de roche calcaire",
    "Longitude": "3.233232",
    "Latitude": "46.955203",
    "Date de fin d'autorisation": null
},
{
    "Identifiant": "27258",
    "Numéro S3IC": null,
    "Commune": "SAUVIGNY-LES-BOIS",
    "Site en activité": "Non",
    "Exploitation en eau": "Non",
    "Substances": "Meulière, cargneule",
    "Produits": "Concassé de roche calcaire",
    "Longitude": "3.232758",
    "Latitude": "46.955592",
    "Date de fin d'autorisation": null
},
{
    "Identifiant": "27246",
    "Numéro S3IC": null,
    "Commune": "SAINT-ELOI",
    "Site en activité": "Non",
    "Exploitation en eau": "Non",
    "Substances": "Meulière, cargneule",
    "Produits": "Concassé de roche calcaire",
    "Longitude": "3.229301",
    "Latitude": "46.973274",
    "Date de fin d'autorisation": null
},
{
    "Identifiant": "27236",
    "Numéro S3IC": null,
    "Commune": "SAINT-ELOI",
    "Site en activité": "Non",
    "Exploitation en eau": "Non",
    "Substances": null,
    "Produits": null,
    "Longitude": "3.231533",
    "Latitude": "46.964839",
    "Date de fin d'autorisation": null
},
{
    "Identifiant": "27237",
    "Numéro S3IC": null,
    "Commune": "SAINT-ELOI",
    "Site en activité": "Non",
    "Exploitation en eau": "Non",
    "Substances": null,
    "Produits": null,
    "Longitude": "3.232373",
    "Latitude": "46.971382",
    "Date de fin d'autorisation": null
},
{
    "Identifiant": "27239",
    "Numéro S3IC": null,
    "Commune": "SAUVIGNY-LES-BOIS",
    "Site en activité": "Non",
    "Exploitation en eau": "Non",
    "Substances": null,
    "Produits": null,
    "Longitude": "3.234628",
    "Latitude": "46.9638",
    "Date de fin d'autorisation": null
},
{
    "Identifiant": "27241",
    "Numéro S3IC": null,
    "Commune": "SAINT-ELOI",
    "Site en activité": "Non",
    "Exploitation en eau": "Non",
    "Substances": "Meulière, cargneule",
    "Produits": "Concassé de roche calcaire",
    "Longitude": "3.228626",
    "Latitude": "46.977071",
    "Date de fin d'autorisation": null
},
{
    "Identifiant": "27240",
    "Numéro S3IC": null,
    "Commune": "SAINT-ELOI",
    "Site en activité": "Non",
    "Exploitation en eau": "Non",
    "Substances": "Meulière, cargneule",
    "Produits": "Concassé de roche calcaire",
    "Longitude": "3.228325",
    "Latitude": "46.978703",
    "Date de fin d'autorisation": null
},
{
    "Identifiant": "27242",
    "Numéro S3IC": null,
    "Commune": "SAINT-ELOI",
    "Site en activité": "Non",
    "Exploitation en eau": "Non",
    "Substances": "Meulière, cargneule",
    "Produits": "Concassé de roche calcaire",
    "Longitude": "3.228676",
    "Latitude": "46.978412",
    "Date de fin d'autorisation": null
},
{
    "Identifiant": "27244",
    "Numéro S3IC": null,
    "Commune": "SAINT-ELOI",
    "Site en activité": "Non",
    "Exploitation en eau": "Non",
    "Substances": "Meulière, cargneule",
    "Produits": "Concassé de roche calcaire",
    "Longitude": "3.228968",
    "Latitude": "46.976627",
    "Date de fin d'autorisation": null
},
{
    "Identifiant": "27257",
    "Numéro S3IC": null,
    "Commune": "SAUVIGNY-LES-BOIS",
    "Site en activité": "Non",
    "Exploitation en eau": "Non",
    "Substances": "Meulière, cargneule",
    "Produits": "Concassé de roche calcaire",
    "Longitude": "3.232438",
    "Latitude": "46.956424",
    "Date de fin d'autorisation": null
},
{
    "Identifiant": "26861",
    "Numéro S3IC": null,
    "Commune": "JOUX-LA-VILLE",
    "Site en activité": "Non",
    "Exploitation en eau": "Non",
    "Substances": null,
    "Produits": null,
    "Longitude": "3.864091",
    "Latitude": "47.583518",
    "Date de fin d'autorisation": null
},
{
    "Identifiant": "27135",
    "Numéro S3IC": null,
    "Commune": "SAINT-ELOI",
    "Site en activité": "Non",
    "Exploitation en eau": "Non",
    "Substances": null,
    "Produits": null,
    "Longitude": "3.229776",
    "Latitude": "46.972174",
    "Date de fin d'autorisation": null
},
{
    "Identifiant": "27243",
    "Numéro S3IC": null,
    "Commune": "SAINT-ELOI",
    "Site en activité": "Non",
    "Exploitation en eau": "Non",
    "Substances": "Meulière, cargneule",
    "Produits": "Concassé de roche calcaire",
    "Longitude": "3.228946",
    "Latitude": "46.97526",
    "Date de fin d'autorisation": null
},
{
    "Identifiant": "27253",
    "Numéro S3IC": null,
    "Commune": "SAINT-ELOI",
    "Site en activité": "Non",
    "Exploitation en eau": "Non",
    "Substances": "Meulière, cargneule",
    "Produits": "Concassé de roche calcaire",
    "Longitude": "3.230207",
    "Latitude": "46.972844",
    "Date de fin d'autorisation": null
},
{
    "Identifiant": "27254",
    "Numéro S3IC": null,
    "Commune": "SAUVIGNY-LES-BOIS",
    "Site en activité": "Non",
    "Exploitation en eau": "Non",
    "Substances": "Meulière, cargneule",
    "Produits": "Concassé de roche calcaire",
    "Longitude": "3.231537",
    "Latitude": "46.959992",
    "Date de fin d'autorisation": null
},
{
    "Identifiant": "27245",
    "Numéro S3IC": null,
    "Commune": "SAINT-ELOI",
    "Site en activité": "Non",
    "Exploitation en eau": "Non",
    "Substances": "Meulière, cargneule",
    "Produits": "Concassé de roche calcaire",
    "Longitude": "3.229031",
    "Latitude": "46.978059",
    "Date de fin d'autorisation": null
},
{
    "Identifiant": "27252",
    "Numéro S3IC": null,
    "Commune": "SAINT-ELOI",
    "Site en activité": "Non",
    "Exploitation en eau": "Non",
    "Substances": "Meulière, cargneule",
    "Produits": "Concassé de roche calcaire",
    "Longitude": "3.2298",
    "Latitude": "46.975813",
    "Date de fin d'autorisation": null
},
{
    "Identifiant": "45170",
    "Numéro S3IC": null,
    "Commune": "SAINT-BRANDAN",
    "Site en activité": "Non",
    "Exploitation en eau": "Non",
    "Substances": null,
    "Produits": null,
    "Longitude": "-2.864362",
    "Latitude": "48.408349",
    "Date de fin d'autorisation": null
},
{
    "Identifiant": "47554",
    "Numéro S3IC": null,
    "Commune": "TEILLAY",
    "Site en activité": "Non",
    "Exploitation en eau": "Non",
    "Substances": null,
    "Produits": null,
    "Longitude": "-1.507838",
    "Latitude": "47.822141",
    "Date de fin d'autorisation": null
},
{
    "Identifiant": "9643",
    "Numéro S3IC": null,
    "Commune": "CHAUMONT-EN-VEXIN",
    "Site en activité": "Non",
    "Exploitation en eau": "Non",
    "Substances": "Sable, graviers",
    "Produits": "Granulat alluvionnaire",
    "Longitude": "1.862244",
    "Latitude": "49.273147",
    "Date de fin d'autorisation": null
},
{
    "Identifiant": "9644",
    "Numéro S3IC": null,
    "Commune": "LIERVILLE",
    "Site en activité": "Non",
    "Exploitation en eau": "Non",
    "Substances": "Silt, limon",
    "Produits": "Terre cuite",
    "Longitude": "1.880525",
    "Latitude": "49.196233",
    "Date de fin d'autorisation": null
},
{
    "Identifiant": "9641",
    "Numéro S3IC": null,
    "Commune": "SERANS",
    "Site en activité": "Non",
    "Exploitation en eau": "Non",
    "Substances": "Silt, limon",
    "Produits": "Terre cuite",
    "Longitude": "1.805919",
    "Latitude": "49.186254",
    "Date de fin d'autorisation": null
},
{
    "Identifiant": "9642",
    "Numéro S3IC": null,
    "Commune": "TRIE-CHATEAU",
    "Site en activité": "Non",
    "Exploitation en eau": "Non",
    "Substances": null,
    "Produits": null,
    "Longitude": "1.820246",
    "Latitude": "49.291845",
    "Date de fin d'autorisation": null
},
{
    "Identifiant": "9645",
    "Numéro S3IC": null,
    "Commune": "LIANCOURT-SAINT-PIERRE",
    "Site en activité": "Non",
    "Exploitation en eau": "Non",
    "Substances": "Silt, limon",
    "Produits": "Terre cuite",
    "Longitude": "1.883015",
    "Latitude": "49.24533",
    "Date de fin d'autorisation": null
},
{
    "Identifiant": "9646",
    "Numéro S3IC": null,
    "Commune": "LIERVILLE",
    "Site en activité": "Non",
    "Exploitation en eau": "Non",
    "Substances": "Silt, limon",
    "Produits": "Terre cuite",
    "Longitude": "1.883847",
    "Latitude": "49.184945",
    "Date de fin d'autorisation": null
},
{
    "Identifiant": "9649",
    "Numéro S3IC": null,
    "Commune": "THIBIVILLERS",
    "Site en activité": "Non",
    "Exploitation en eau": "Non",
    "Substances": null,
    "Produits": null,
    "Longitude": "1.910997",
    "Latitude": "49.300602",
    "Date de fin d'autorisation": null
},
{
    "Identifiant": "9650",
    "Numéro S3IC": null,
    "Commune": "JOUY-SOUS-THELLE",
    "Site en activité": "Non",
    "Exploitation en eau": "Non",
    "Substances": "Silt, limon",
    "Produits": "Terre cuite",
    "Longitude": "1.956124",
    "Latitude": "49.31273",
    "Date de fin d'autorisation": null
},
{
    "Identifiant": "9647",
    "Numéro S3IC": null,
    "Commune": "BOUCONVILLERS",
    "Site en activité": "Non",
    "Exploitation en eau": "Non",
    "Substances": "Silt, limon",
    "Produits": "Terre cuite",
    "Longitude": "1.892971",
    "Latitude": "49.165869",
    "Date de fin d'autorisation": null
},
{
    "Identifiant": "9659",
    "Numéro S3IC": null,
    "Commune": "VALDAMPIERRE",
    "Site en activité": "Non",
    "Exploitation en eau": "Non",
    "Substances": "Silt, limon",
    "Produits": "Terre cuite",
    "Longitude": "2.041355",
    "Latitude": "49.31594",
    "Date de fin d'autorisation": null
},
{
    "Identifiant": "9651",
    "Numéro S3IC": null,
    "Commune": "FLEURY",
    "Site en activité": "Non",
    "Exploitation en eau": "Non",
    "Substances": "Silt, limon",
    "Produits": "Terre cuite",
    "Longitude": "1.971509",
    "Latitude": "49.252092",
    "Date de fin d'autorisation": null
},
{
    "Identifiant": "9655",
    "Numéro S3IC": null,
    "Commune": "LE MESNIL-THERIBUS",
    "Site en activité": "Non",
    "Exploitation en eau": "Non",
    "Substances": null,
    "Produits": null,
    "Longitude": "1.989246",
    "Latitude": "49.300101",
    "Date de fin d'autorisation": null
},
{
    "Identifiant": "9652",
    "Numéro S3IC": null,
    "Commune": "FRESNE-LEGUILLON",
    "Site en activité": "Non",
    "Exploitation en eau": "Non",
    "Substances": null,
    "Produits": null,
    "Longitude": "1.976424",
    "Latitude": "49.255231",
    "Date de fin d'autorisation": null
},
{
    "Identifiant": "9648",
    "Numéro S3IC": null,
    "Commune": "LIANCOURT-SAINT-PIERRE",
    "Site en activité": "Non",
    "Exploitation en eau": "Non",
    "Substances": "Silt, limon",
    "Produits": "Terre cuite",
    "Longitude": "1.900416",
    "Latitude": "49.231541",
    "Date de fin d'autorisation": null
},
{
    "Identifiant": "9654",
    "Numéro S3IC": null,
    "Commune": "FRESNE-LEGUILLON",
    "Site en activité": "Non",
    "Exploitation en eau": "Non",
    "Substances": "Silt, limon",
    "Produits": "Terre cuite",
    "Longitude": "1.980721",
    "Latitude": "49.250978",
    "Date de fin d'autorisation": null
},
{
    "Identifiant": "9656",
    "Numéro S3IC": null,
    "Commune": "FRESNE-LEGUILLON",
    "Site en activité": "Non",
    "Exploitation en eau": "Non",
    "Substances": "Silt, limon",
    "Produits": "Terre cuite",
    "Longitude": "1.99723",
    "Latitude": "49.239363",
    "Date de fin d'autorisation": null
},
{
    "Identifiant": "9658",
    "Numéro S3IC": null,
    "Commune": "IVRY-LE-TEMPLE",
    "Site en activité": "Non",
    "Exploitation en eau": "Non",
    "Substances": "Silt, limon",
    "Produits": "Terre cuite",
    "Longitude": "2.030406",
    "Latitude": "49.230948",
    "Date de fin d'autorisation": null
},
{
    "Identifiant": "9660",
    "Numéro S3IC": null,
    "Commune": "VILLENEUVE-LES-SABLONS",
    "Site en activité": "Non",
    "Exploitation en eau": "Non",
    "Substances": "Silt, limon",
    "Produits": "Terre cuite",
    "Longitude": "2.070124",
    "Latitude": "49.23436",
    "Date de fin d'autorisation": null
},
{
    "Identifiant": "9661",
    "Numéro S3IC": null,
    "Commune": "VILLENEUVE-LES-SABLONS",
    "Site en activité": "Non",
    "Exploitation en eau": "Non",
    "Substances": "Silt, limon",
    "Produits": "Terre cuite",
    "Longitude": "2.074456",
    "Latitude": "49.234654",
    "Date de fin d'autorisation": null
},
{
    "Identifiant": "9653",
    "Numéro S3IC": null,
    "Commune": "BACHIVILLERS",
    "Site en activité": "Non",
    "Exploitation en eau": "Non",
    "Substances": "Silt, limon",
    "Produits": "Terre cuite",
    "Longitude": "1.977922",
    "Latitude": "49.283863",
    "Date de fin d'autorisation": null
},
{
    "Identifiant": "9657",
    "Numéro S3IC": null,
    "Commune": "IVRY-LE-TEMPLE",
    "Site en activité": "Non",
    "Exploitation en eau": "Non",
    "Substances": "Silt, limon",
    "Produits": "Terre cuite",
    "Longitude": "2.021316",
    "Latitude": "49.231992",
    "Date de fin d'autorisation": null
},
{
    "Identifiant": "9666",
    "Numéro S3IC": null,
    "Commune": "AMBLAINVILLE",
    "Site en activité": "Non",
    "Exploitation en eau": "Non",
    "Substances": "Silt, limon",
    "Produits": "Terre cuite",
    "Longitude": "2.126718",
    "Latitude": "49.204353",
    "Date de fin d'autorisation": null
},
{
    "Identifiant": "9664",
    "Numéro S3IC": null,
    "Commune": "AMBLAINVILLE",
    "Site en activité": "Non",
    "Exploitation en eau": "Non",
    "Substances": "Silt, limon",
    "Produits": "Terre cuite",
    "Longitude": "2.120509",
    "Latitude": "49.204621",
    "Date de fin d'autorisation": null
},
{
    "Identifiant": "9665",
    "Numéro S3IC": null,
    "Commune": "AMBLAINVILLE",
    "Site en activité": "Non",
    "Exploitation en eau": "Non",
    "Substances": "Silt, limon",
    "Produits": "Terre cuite",
    "Longitude": "2.124393",
    "Latitude": "49.20314",
    "Date de fin d'autorisation": null
},
{
    "Identifiant": "9662",
    "Numéro S3IC": null,
    "Commune": "LA DRENNE",
    "Site en activité": "Non",
    "Exploitation en eau": "Non",
    "Substances": "Silt, limon",
    "Produits": "Terre cuite",
    "Longitude": "2.110474",
    "Latitude": "49.296461",
    "Date de fin d'autorisation": null
},
{
    "Identifiant": "9667",
    "Numéro S3IC": null,
    "Commune": "MERU",
    "Site en activité": "Non",
    "Exploitation en eau": "Non",
    "Substances": "Silt, limon",
    "Produits": "Terre cuite",
    "Longitude": "2.129592",
    "Latitude": "49.244744",
    "Date de fin d'autorisation": null
},
{
    "Identifiant": "9668",
    "Numéro S3IC": null,
    "Commune": "MERU",
    "Site en activité": "Non",
    "Exploitation en eau": "Non",
    "Substances": null,
    "Produits": null,
    "Longitude": "2.133344",
    "Latitude": "49.256761",
    "Date de fin d'autorisation": null
},
{
    "Identifiant": "9663",
    "Numéro S3IC": null,
    "Commune": "LE COUDRAY-SUR-THELLE",
    "Site en activité": "Non",
    "Exploitation en eau": "Non",
    "Substances": "Silt, limon",
    "Produits": "Terre cuite",
    "Longitude": "2.117611",
    "Latitude": "49.306904",
    "Date de fin d'autorisation": null
},