[{
    "Identifiant": "34206",
    "Numéro S3IC": null,
    "Commune": "FILLIEVRES",
    "Site en activité": "Non",
    "Exploitation en eau": "Non",
    "Substances": null,
    "Produits": null,
    "Longitude": "2.190018",
    "Latitude": "50.329176",
    "Date de fin d'autorisation": null,
    "Nom": "CARTE DE ST-POL-SUR-TERNOISE"
},
{
    "Identifiant": "34209",
    "Numéro S3IC": null,
    "Commune": "GUINECOURT",
    "Site en activité": "Non",
    "Exploitation en eau": "Non",
    "Substances": null,
    "Produits": null,
    "Longitude": "2.232611",
    "Latitude": "50.347522",
    "Date de fin d'autorisation": null,
    "Nom": "CARTE DE ST-POL-SUR-TERNOISE"
},
{
    "Identifiant": "34210",
    "Numéro S3IC": null,
    "Commune": "FILLIEVRES",
    "Site en activité": "Non",
    "Exploitation en eau": "Non",
    "Substances": null,
    "Produits": null,
    "Longitude": "2.156894",
    "Latitude": "50.32942",
    "Date de fin d'autorisation": null,
    "Nom": "CARTE DE ST-POL-SUR-TERNOISE"
},
{
    "Identifiant": "34212",
    "Numéro S3IC": null,
    "Commune": "FILLIEVRES",
    "Site en activité": "Non",
    "Exploitation en eau": "Non",
    "Substances": null,
    "Produits": null,
    "Longitude": "2.17917",
    "Latitude": "50.324684",
    "Date de fin d'autorisation": null,
    "Nom": "CARTE DE ST-POL-SUR-TERNOISE"
},
{
    "Identifiant": "34215",
    "Numéro S3IC": null,
    "Commune": "BONNIERES",
    "Site en activité": "Non",
    "Exploitation en eau": "Non",
    "Substances": null,
    "Produits": null,
    "Longitude": "2.253463",
    "Latitude": "50.2255",
    "Date de fin d'autorisation": null,
    "Nom": "CARTE DE ST-POL-SUR-TERNOISE"
},
{
    "Identifiant": "34213",
    "Numéro S3IC": null,
    "Commune": "NUNCQ-HAUTECOTE",
    "Site en activité": "Non",
    "Exploitation en eau": "Non",
    "Substances": null,
    "Produits": null,
    "Longitude": "2.29113",
    "Latitude": "50.297743",
    "Date de fin d'autorisation": null,
    "Nom": "CARTE DE ST-POL-SUR-TERNOISE"
},
{
    "Identifiant": "34219",
    "Numéro S3IC": null,
    "Commune": "BERLES-MONCHEL",
    "Site en activité": "Non",
    "Exploitation en eau": "Non",
    "Substances": null,
    "Produits": null,
    "Longitude": "2.517877",
    "Latitude": "50.348948",
    "Date de fin d'autorisation": null,
    "Nom": "CARTE DE ARRAS"
},
{
    "Identifiant": "34211",
    "Numéro S3IC": null,
    "Commune": "FILLIEVRES",
    "Site en activité": "Non",
    "Exploitation en eau": "Non",
    "Substances": null,
    "Produits": null,
    "Longitude": "2.162627",
    "Latitude": "50.323113",
    "Date de fin d'autorisation": null,
    "Nom": "CARTE DE ST-POL-SUR-TERNOISE"
},
{
    "Identifiant": "34220",
    "Numéro S3IC": null,
    "Commune": "ESTREE-CAUCHY",
    "Site en activité": "Non",
    "Exploitation en eau": "Non",
    "Substances": null,
    "Produits": null,
    "Longitude": "2.618554",
    "Latitude": "50.395626",
    "Date de fin d'autorisation": null,
    "Nom": "CARTE DE ARRAS"
},
{
    "Identifiant": "34218",
    "Numéro S3IC": null,
    "Commune": "CAUCOURT",
    "Site en activité": "Non",
    "Exploitation en eau": "Non",
    "Substances": null,
    "Produits": null,
    "Longitude": "2.570384",
    "Latitude": "50.397573",
    "Date de fin d'autorisation": null,
    "Nom": "CARTE DE ARRAS"
},
{
    "Identifiant": "34224",
    "Numéro S3IC": null,
    "Commune": "SERVINS",
    "Site en activité": "Non",
    "Exploitation en eau": "Non",
    "Substances": null,
    "Produits": null,
    "Longitude": "2.642839",
    "Latitude": "50.391919",
    "Date de fin d'autorisation": null,
    "Nom": "CARTE DE ARRAS"
},
{
    "Identifiant": "34223",
    "Numéro S3IC": null,
    "Commune": "CAMBLAIN-L'ABBE",
    "Site en activité": "Non",
    "Exploitation en eau": "Non",
    "Substances": null,
    "Produits": null,
    "Longitude": "2.642953",
    "Latitude": "50.385398",
    "Date de fin d'autorisation": null,
    "Nom": "CARTE DE ARRAS"
},
{
    "Identifiant": "34216",
    "Numéro S3IC": null,
    "Commune": "CAUCOURT",
    "Site en activité": "Non",
    "Exploitation en eau": "Non",
    "Substances": null,
    "Produits": null,
    "Longitude": "2.56052",
    "Latitude": "50.391649",
    "Date de fin d'autorisation": null,
    "Nom": "CARTE DE ARRAS"
},
{
    "Identifiant": "34217",
    "Numéro S3IC": null,
    "Commune": "MINGOVAL",
    "Site en activité": "Non",
    "Exploitation en eau": "Non",
    "Substances": null,
    "Produits": null,
    "Longitude": "2.555053",
    "Latitude": "50.386567",
    "Date de fin d'autorisation": null,
    "Nom": "CARTE DE ARRAS"
},
{
    "Identifiant": "34222",
    "Numéro S3IC": null,
    "Commune": "ESTREE-CAUCHY",
    "Site en activité": "Non",
    "Exploitation en eau": "Non",
    "Substances": null,
    "Produits": null,
    "Longitude": "2.622129",
    "Latitude": "50.392731",
    "Date de fin d'autorisation": null,
    "Nom": "CARTE DE ARRAS"
},
{
    "Identifiant": "34229",
    "Numéro S3IC": null,
    "Commune": "AUBIGNY-EN-ARTOIS",
    "Site en activité": "Non",
    "Exploitation en eau": "Non",
    "Substances": null,
    "Produits": null,
    "Longitude": "2.569173",
    "Latitude": "50.336921",
    "Date de fin d'autorisation": null,
    "Nom": "CARTE DE ARRAS"
},
{
    "Identifiant": "34226",
    "Numéro S3IC": null,
    "Commune": "CAMBLAIN-L'ABBE",
    "Site en activité": "Non",
    "Exploitation en eau": "Non",
    "Substances": null,
    "Produits": null,
    "Longitude": "2.645902",
    "Latitude": "50.380854",
    "Date de fin d'autorisation": null,
    "Nom": "CARTE DE ARRAS"
},
{
    "Identifiant": "34225",
    "Numéro S3IC": null,
    "Commune": "SERVINS",
    "Site en activité": "Non",
    "Exploitation en eau": "Non",
    "Substances": "Sables et graviers alluvionnaires",
    "Produits": "Granulat meuble divers",
    "Longitude": "2.642682",
    "Latitude": "50.391181",
    "Date de fin d'autorisation": null,
    "Nom": "CARTE DE ARRAS"
},
{
    "Identifiant": "34221",
    "Numéro S3IC": null,
    "Commune": "ESTREE-CAUCHY",
    "Site en activité": "Non",
    "Exploitation en eau": "Non",
    "Substances": null,
    "Produits": null,
    "Longitude": "2.623263",
    "Latitude": "50.393975",
    "Date de fin d'autorisation": null,
    "Nom": "CARTE DE ARRAS"
},
{
    "Identifiant": "34232",
    "Numéro S3IC": null,
    "Commune": "IZEL-LES-HAMEAU",
    "Site en activité": "Non",
    "Exploitation en eau": "Non",
    "Substances": "Craie",
    "Produits": "Agriculture",
    "Longitude": "2.528009",
    "Latitude": "50.320689",
    "Date de fin d'autorisation": null,
    "Nom": "CARTE DE ARRAS"
},
{
    "Identifiant": "35367",
    "Numéro S3IC": null,
    "Commune": "HAN-SUR-MEUSE",
    "Site en activité": "Non",
    "Exploitation en eau": "Non",
    "Substances": "Calcaire",
    "Produits": "Concassé de roche calcaire",
    "Longitude": "5.560135",
    "Latitude": "48.867416",
    "Date de fin d'autorisation": null,
    "Nom": "CARTE DE ST-MIHIEL"
},
{
    "Identifiant": "34227",
    "Numéro S3IC": null,
    "Commune": "MINGOVAL",
    "Site en activité": "Non",
    "Exploitation en eau": "Non",
    "Substances": null,
    "Produits": null,
    "Longitude": "2.572581",
    "Latitude": "50.368557",
    "Date de fin d'autorisation": null,
    "Nom": "CARTE DE ARRAS"
},
{
    "Identifiant": "34228",
    "Numéro S3IC": null,
    "Commune": "SAVY-BERLETTE",
    "Site en activité": "Non",
    "Exploitation en eau": "Non",
    "Substances": null,
    "Produits": null,
    "Longitude": "2.574742",
    "Latitude": "50.362202",
    "Date de fin d'autorisation": null,
    "Nom": "CARTE DE ARRAS"
},
{
    "Identifiant": "34233",
    "Numéro S3IC": null,
    "Commune": "IZEL-LES-HAMEAU",
    "Site en activité": "Non",
    "Exploitation en eau": "Non",
    "Substances": null,
    "Produits": null,
    "Longitude": "2.54195",
    "Latitude": "50.312328",
    "Date de fin d'autorisation": null,
    "Nom": "CARTE DE ARRAS"
},
{
    "Identifiant": "34235",
    "Numéro S3IC": null,
    "Commune": "MONT-SAINT-ELOI",
    "Site en activité": "Non",
    "Exploitation en eau": "Non",
    "Substances": null,
    "Produits": null,
    "Longitude": "2.670335",
    "Latitude": "50.370009",
    "Date de fin d'autorisation": null,
    "Nom": "CARTE DE ARRAS"
},
{
    "Identifiant": "34237",
    "Numéro S3IC": null,
    "Commune": "MONT-SAINT-ELOI",
    "Site en activité": "Non",
    "Exploitation en eau": "Non",
    "Substances": null,
    "Produits": null,
    "Longitude": "2.684274",
    "Latitude": "50.358032",
    "Date de fin d'autorisation": null,
    "Nom": "CARTE DE ARRAS"
},
{
    "Identifiant": "34238",
    "Numéro S3IC": null,
    "Commune": "LATTRE-SAINT-QUENTIN",
    "Site en activité": "Non",
    "Exploitation en eau": "Non",
    "Substances": null,
    "Produits": null,
    "Longitude": "2.552689",
    "Latitude": "50.311534",
    "Date de fin d'autorisation": null,
    "Nom": "CARTE DE ARRAS"
},
{
    "Identifiant": "34236",
    "Numéro S3IC": null,
    "Commune": "MONT-SAINT-ELOI",
    "Site en activité": "Non",
    "Exploitation en eau": "Non",
    "Substances": null,
    "Produits": null,
    "Longitude": "2.67855",
    "Latitude": "50.360744",
    "Date de fin d'autorisation": null,
    "Nom": "CARTE DE ARRAS"
},
{
    "Identifiant": "34231",
    "Numéro S3IC": null,
    "Commune": "IZEL-LES-HAMEAU",
    "Site en activité": "Non",
    "Exploitation en eau": "Non",
    "Substances": "Craie",
    "Produits": "Agriculture",
    "Longitude": "2.526053",
    "Latitude": "50.326267",
    "Date de fin d'autorisation": null,
    "Nom": "CARTE DE ARRAS"
},
{
    "Identifiant": "34242",
    "Numéro S3IC": null,
    "Commune": "AGNEZ-LES-DUISANS",
    "Site en activité": "Non",
    "Exploitation en eau": "Non",
    "Substances": null,
    "Produits": null,
    "Longitude": "2.648008",
    "Latitude": "50.317016",
    "Date de fin d'autorisation": null,
    "Nom": "CARTE DE ARRAS"
},
{
    "Identifiant": "34244",
    "Numéro S3IC": null,
    "Commune": "BEAUMETZ-LES-LOGES",
    "Site en activité": "Non",
    "Exploitation en eau": "Non",
    "Substances": null,
    "Produits": null,
    "Longitude": "2.645534",
    "Latitude": "50.250838",
    "Date de fin d'autorisation": null,
    "Nom": "CARTE DE ARRAS"
},
{
    "Identifiant": "34243",
    "Numéro S3IC": null,
    "Commune": "AVESNES-LE-COMTE",
    "Site en activité": "Non",
    "Exploitation en eau": "Non",
    "Substances": null,
    "Produits": null,
    "Longitude": "2.554101",
    "Latitude": "50.279",
    "Date de fin d'autorisation": null,
    "Nom": "CARTE DE ARRAS"
},
{
    "Identifiant": "34240",
    "Numéro S3IC": null,
    "Commune": "HABARCQ",
    "Site en activité": "Non",
    "Exploitation en eau": "Non",
    "Substances": null,
    "Produits": null,
    "Longitude": "2.612877",
    "Latitude": "50.307971",
    "Date de fin d'autorisation": null,
    "Nom": "CARTE DE ARRAS"
},
{
    "Identifiant": "34241",
    "Numéro S3IC": null,
    "Commune": "AGNEZ-LES-DUISANS",
    "Site en activité": "Non",
    "Exploitation en eau": "Non",
    "Substances": null,
    "Produits": null,
    "Longitude": "2.646842",
    "Latitude": "50.317791",
    "Date de fin d'autorisation": null,
    "Nom": "CARTE DE ARRAS"
},
{
    "Identifiant": "34246",
    "Numéro S3IC": null,
    "Commune": "ABLAIN-SAINT-NAZAIRE",
    "Site en activité": "Non",
    "Exploitation en eau": "Non",
    "Substances": null,
    "Produits": null,
    "Longitude": "2.715337",
    "Latitude": "50.395061",
    "Date de fin d'autorisation": null,
    "Nom": "CARTE DE ARRAS"
},
{
    "Identifiant": "34247",
    "Numéro S3IC": null,
    "Commune": "MERICOURT",
    "Site en activité": "Non",
    "Exploitation en eau": "Non",
    "Substances": null,
    "Produits": null,
    "Longitude": "2.85305",
    "Latitude": "50.381636",
    "Date de fin d'autorisation": null,
    "Nom": "CARTE DE ARRAS"
},
{
    "Identifiant": "34248",
    "Numéro S3IC": null,
    "Commune": "VIMY",
    "Site en activité": "Non",
    "Exploitation en eau": "Non",
    "Substances": null,
    "Produits": null,
    "Longitude": "2.851763",
    "Latitude": "50.379094",
    "Date de fin d'autorisation": null,
    "Nom": "CARTE DE ARRAS"
},
{
    "Identifiant": "34249",
    "Numéro S3IC": null,
    "Commune": "VIMY",
    "Site en activité": "Non",
    "Exploitation en eau": "Non",
    "Substances": "Silt, limon",
    "Produits": "Terre cuite",
    "Longitude": "2.827058",
    "Latitude": "50.373742",
    "Date de fin d'autorisation": null,
    "Nom": "CARTE DE ARRAS"
},
{
    "Identifiant": "34252",
    "Numéro S3IC": null,
    "Commune": "WAILLY",
    "Site en activité": "Non",
    "Exploitation en eau": "Non",
    "Substances": null,
    "Produits": null,
    "Longitude": "2.728161",
    "Latitude": "50.25694",
    "Date de fin d'autorisation": null,
    "Nom": "CARTE DE ARRAS"
},
{
    "Identifiant": "34253",
    "Numéro S3IC": null,
    "Commune": "TILLOY-LES-MOFFLAINES",
    "Site en activité": "Non",
    "Exploitation en eau": "Non",
    "Substances": null,
    "Produits": null,
    "Longitude": "2.835515",
    "Latitude": "50.272779",
    "Date de fin d'autorisation": null,
    "Nom": "CARTE DE ARRAS"
},
{
    "Identifiant": "34254",
    "Numéro S3IC": null,
    "Commune": "SAINTE-CATHERINE",
    "Site en activité": "Non",
    "Exploitation en eau": "Non",
    "Substances": null,
    "Produits": null,
    "Longitude": "2.764734",
    "Latitude": "50.316399",
    "Date de fin d'autorisation": null,
    "Nom": "CARTE DE ARRAS"
},
{
    "Identifiant": "34255",
    "Numéro S3IC": null,
    "Commune": "CAMBLIGNEUL",
    "Site en activité": "Non",
    "Exploitation en eau": "Non",
    "Substances": null,
    "Produits": null,
    "Longitude": "2.601096",
    "Latitude": "50.373255",
    "Date de fin d'autorisation": null,
    "Nom": "CARTE DE ARRAS"
},
{
    "Identifiant": "34256",
    "Numéro S3IC": null,
    "Commune": "IZEL-LES-HAMEAU",
    "Site en activité": "Non",
    "Exploitation en eau": "Non",
    "Substances": null,
    "Produits": null,
    "Longitude": "2.526382",
    "Latitude": "50.324885",
    "Date de fin d'autorisation": null,
    "Nom": "CARTE DE ARRAS"
},
{
    "Identifiant": "35406",
    "Numéro S3IC": null,
    "Commune": "TRITTELING-REDLACH",
    "Site en activité": "Non",
    "Exploitation en eau": "Non",
    "Substances": null,
    "Produits": null,
    "Longitude": "6.60934",
    "Latitude": "49.087314",
    "Date de fin d'autorisation": null,
    "Nom": "CARTE DE ST-AVOLD"
},
{
    "Identifiant": "34261",
    "Numéro S3IC": null,
    "Commune": "DIMONT",
    "Site en activité": "Non",
    "Exploitation en eau": "Non",
    "Substances": "Sables et graviers alluvionnaires",
    "Produits": "Granulat meuble divers",
    "Longitude": "4.038277",
    "Latitude": "50.180897",
    "Date de fin d'autorisation": null,
    "Nom": "CARTE DE TRELON"
},
{
    "Identifiant": "34251",
    "Numéro S3IC": null,
    "Commune": "BLAIRVILLE",
    "Site en activité": "Non",
    "Exploitation en eau": "Non",
    "Substances": null,
    "Produits": null,
    "Longitude": "2.721603",
    "Latitude": "50.226257",
    "Date de fin d'autorisation": null,
    "Nom": "CARTE DE ARRAS"
},
{
    "Identifiant": "34259",
    "Numéro S3IC": null,
    "Commune": "LIESSIES",
    "Site en activité": "Non",
    "Exploitation en eau": "Non",
    "Substances": null,
    "Produits": null,
    "Longitude": "4.078573",
    "Latitude": "50.108586",
    "Date de fin d'autorisation": null,
    "Nom": "CARTE DE TRELON"
},
{
    "Identifiant": "34262",
    "Numéro S3IC": null,
    "Commune": "DIMONT",
    "Site en activité": "Non",
    "Exploitation en eau": "Non",
    "Substances": "Sables et graviers alluvionnaires",
    "Produits": "Granulat meuble divers",
    "Longitude": "4.037613",
    "Latitude": "50.177724",
    "Date de fin d'autorisation": null,
    "Nom": "CARTE DE TRELON"
},
{
    "Identifiant": "34264",
    "Numéro S3IC": null,
    "Commune": "LEZ-FONTAINE",
    "Site en activité": "Non",
    "Exploitation en eau": "Non",
    "Substances": null,
    "Produits": null,
    "Longitude": "4.069279",
    "Latitude": "50.177765",
    "Date de fin d'autorisation": null,
    "Nom": "CARTE DE TRELON"
},
{
    "Identifiant": "34265",
    "Numéro S3IC": null,
    "Commune": "LEZ-FONTAINE",
    "Site en activité": "Non",
    "Exploitation en eau": "Non",
    "Substances": null,
    "Produits": null,
    "Longitude": "4.060102",
    "Latitude": "50.174747",
    "Date de fin d'autorisation": null,
    "Nom": "CARTE DE TRELON"
},
{
    "Identifiant": "34269",
    "Numéro S3IC": null,
    "Commune": "SARS-POTERIES",
    "Site en activité": "Non",
    "Exploitation en eau": "Non",
    "Substances": null,
    "Produits": null,
    "Longitude": "4.049715",
    "Latitude": "50.165702",
    "Date de fin d'autorisation": null,
    "Nom": "CARTE DE TRELON"
},
{
    "Identifiant": "34270",
    "Numéro S3IC": null,
    "Commune": "SOLRE-LE-CHATEAU",
    "Site en activité": "Non",
    "Exploitation en eau": "Non",
    "Substances": "Sables et graviers alluvionnaires",
    "Produits": "Granulat meuble divers",
    "Longitude": "4.094869",
    "Latitude": "50.154919",
    "Date de fin d'autorisation": null,
    "Nom": "CARTE DE TRELON"
},
{
    "Identifiant": "34271",
    "Numéro S3IC": null,
    "Commune": "CLAIRFAYTS",
    "Site en activité": "Non",
    "Exploitation en eau": "Non",
    "Substances": "Sables et graviers alluvionnaires",
    "Produits": "Granulat meuble divers",
    "Longitude": "4.124965",
    "Latitude": "50.155662",
    "Date de fin d'autorisation": null,
    "Nom": "CARTE DE TRELON"
},
{
    "Identifiant": "35422",
    "Numéro S3IC": null,
    "Commune": "ORNY",
    "Site en activité": "Non",
    "Exploitation en eau": "Non",
    "Substances": null,
    "Produits": null,
    "Longitude": "6.262568",
    "Latitude": "49.032828",
    "Date de fin d'autorisation": null,
    "Nom": "CARTE DE METZ"
},
{
    "Identifiant": "34272",
    "Numéro S3IC": null,
    "Commune": "CLAIRFAYTS",
    "Site en activité": "Non",
    "Exploitation en eau": "Non",
    "Substances": null,
    "Produits": null,
    "Longitude": "4.125596",
    "Latitude": "50.157134",
    "Date de fin d'autorisation": null,
    "Nom": "CARTE DE TRELON"
},
{
    "Identifiant": "34276",
    "Numéro S3IC": null,
    "Commune": "BERELLES",
    "Site en activité": "Non",
    "Exploitation en eau": "Non",
    "Substances": null,
    "Produits": null,
    "Longitude": "4.11195",
    "Latitude": "50.205367",
    "Date de fin d'autorisation": null,
    "Nom": "CARTE DE TRELON"
},
{
    "Identifiant": "34273",
    "Numéro S3IC": null,
    "Commune": "CLAIRFAYTS",
    "Site en activité": "Non",
    "Exploitation en eau": "Non",
    "Substances": null,
    "Produits": null,
    "Longitude": "4.123231",
    "Latitude": "50.154147",
    "Date de fin d'autorisation": null,
    "Nom": "CARTE DE TRELON"
},
{
    "Identifiant": "34274",
    "Numéro S3IC": null,
    "Commune": "SOLRINNES",
    "Site en activité": "Non",
    "Exploitation en eau": "Non",
    "Substances": null,
    "Produits": null,
    "Longitude": "4.081456",
    "Latitude": "50.200558",
    "Date de fin d'autorisation": null,
    "Nom": "CARTE DE TRELON"
},
{
    "Identifiant": "34277",
    "Numéro S3IC": null,
    "Commune": "HESTRUD",
    "Site en activité": "Non",
    "Exploitation en eau": "Non",
    "Substances": null,
    "Produits": null,
    "Longitude": "4.128944",
    "Latitude": "50.200409",
    "Date de fin d'autorisation": null,
    "Nom": "CARTE DE TRELON"
},
{
    "Identifiant": "34279",
    "Numéro S3IC": null,
    "Commune": "HESTRUD",
    "Site en activité": "Non",
    "Exploitation en eau": "Non",
    "Substances": null,
    "Produits": null,
    "Longitude": "4.148124",
    "Latitude": "50.202818",
    "Date de fin d'autorisation": null,
    "Nom": "CARTE DE TRELON"
},
{
    "Identifiant": "34282",
    "Numéro S3IC": null,
    "Commune": "TRELON",
    "Site en activité": "Non",
    "Exploitation en eau": "Non",
    "Substances": null,
    "Produits": null,
    "Longitude": "4.139029",
    "Latitude": "50.057462",
    "Date de fin d'autorisation": null,
    "Nom": "CARTE DE TRELON"
},
{
    "Identifiant": "34258",
    "Numéro S3IC": null,
    "Commune": "SAINS-DU-NORD",
    "Site en activité": "Non",
    "Exploitation en eau": "Non",
    "Substances": null,
    "Produits": null,
    "Longitude": "4.048183",
    "Latitude": "50.095126",
    "Date de fin d'autorisation": null,
    "Nom": "CARTE DE TRELON"
},
{
    "Identifiant": "34286",
    "Numéro S3IC": null,
    "Commune": "AUXI-LE-CHATEAU",
    "Site en activité": "Non",
    "Exploitation en eau": "Non",
    "Substances": null,
    "Produits": null,
    "Longitude": "2.138633",
    "Latitude": "50.245103",
    "Date de fin d'autorisation": null,
    "Nom": "CARTE DE HESDIN"
},
{
    "Identifiant": "34287",
    "Numéro S3IC": null,
    "Commune": "AUXI-LE-CHATEAU",
    "Site en activité": "Non",
    "Exploitation en eau": "Non",
    "Substances": null,
    "Produits": null,
    "Longitude": "2.119684",
    "Latitude": "50.23965",
    "Date de fin d'autorisation": null,
    "Nom": "CARTE DE HESDIN"
},
{
    "Identifiant": "34285",
    "Numéro S3IC": null,
    "Commune": "BEAUVOIR-WAVANS",
    "Site en activité": "Non",
    "Exploitation en eau": "Non",
    "Substances": null,
    "Produits": null,
    "Longitude": "2.145895",
    "Latitude": "50.224282",
    "Date de fin d'autorisation": null,
    "Nom": "CARTE DE HESDIN"
},
{
    "Identifiant": "34288",
    "Numéro S3IC": null,
    "Commune": "AUXI-LE-CHATEAU",
    "Site en activité": "Non",
    "Exploitation en eau": "Non",
    "Substances": null,
    "Produits": null,
    "Longitude": "2.100612",
    "Latitude": "50.24747",
    "Date de fin d'autorisation": null,
    "Nom": "CARTE DE HESDIN"
},
{
    "Identifiant": "35440",
    "Numéro S3IC": null,
    "Commune": "DOMMARTIN-LES-REMIREMONT",
    "Site en activité": "Non",
    "Exploitation en eau": "Non",
    "Substances": null,
    "Produits": null,
    "Longitude": "6.636228",
    "Latitude": "47.987335",
    "Date de fin d'autorisation": null,
    "Nom": "CARTE DE REMIREMONT"
},
{
    "Identifiant": "34290",
    "Numéro S3IC": null,
    "Commune": "BUIRE-AU-BOIS",
    "Site en activité": "Non",
    "Exploitation en eau": "Non",
    "Substances": null,
    "Produits": null,
    "Longitude": "2.14665",
    "Latitude": "50.262367",
    "Date de fin d'autorisation": null,
    "Nom": "CARTE DE HESDIN"
},
{
    "Identifiant": "34268",
    "Numéro S3IC": null,
    "Commune": "SARS-POTERIES",
    "Site en activité": "Non",
    "Exploitation en eau": "Non",
    "Substances": "Sables et graviers alluvionnaires",
    "Produits": "Granulat meuble divers",
    "Longitude": "4.040137",
    "Latitude": "50.160417",
    "Date de fin d'autorisation": null,
    "Nom": "CARTE DE TRELON"
},
{
    "Identifiant": "34291",
    "Numéro S3IC": null,
    "Commune": "BUIRE-AU-BOIS",
    "Site en activité": "Non",
    "Exploitation en eau": "Non",
    "Substances": null,
    "Produits": null,
    "Longitude": "2.150374",
    "Latitude": "50.257457",
    "Date de fin d'autorisation": null,
    "Nom": "CARTE DE HESDIN"
},
{
    "Identifiant": "34266",
    "Numéro S3IC": null,
    "Commune": "DIMONT",
    "Site en activité": "Non",
    "Exploitation en eau": "Non",
    "Substances": "Sables et graviers alluvionnaires",
    "Produits": "Granulat meuble divers",
    "Longitude": "4.040164",
    "Latitude": "50.177962",
    "Date de fin d'autorisation": null,
    "Nom": "CARTE DE TRELON"
},
{
    "Identifiant": "34289",
    "Numéro S3IC": null,
    "Commune": "AUXI-LE-CHATEAU",
    "Site en activité": "Non",
    "Exploitation en eau": "Non",
    "Substances": null,
    "Produits": null,
    "Longitude": "2.106033",
    "Latitude": "50.253471",
    "Date de fin d'autorisation": null,
    "Nom": "CARTE DE HESDIN"
},
{
    "Identifiant": "34250",
    "Numéro S3IC": null,
    "Commune": "ARRAS",
    "Site en activité": "Non",
    "Exploitation en eau": "Non",
    "Substances": "Silt, limon",
    "Produits": "Terre cuite",
    "Longitude": "2.7409",
    "Latitude": "50.28124",
    "Date de fin d'autorisation": null,
    "Nom": "CARTE DE ARRAS"
},
{
    "Identifiant": "34283",
    "Numéro S3IC": null,
    "Commune": "LINZEUX",
    "Site en activité": "Non",
    "Exploitation en eau": "Non",
    "Substances": null,
    "Produits": null,
    "Longitude": "2.200223",
    "Latitude": "50.334416",
    "Date de fin d'autorisation": null,
    "Nom": "CARTE DE ST-POL-SUR-TERNOISE"
},
{
    "Identifiant": "34280",
    "Numéro S3IC": null,
    "Commune": "HESTRUD",
    "Site en activité": "Non",
    "Exploitation en eau": "Non",
    "Substances": null,
    "Produits": null,
    "Longitude": "4.155434",
    "Latitude": "50.201823",
    "Date de fin d'autorisation": null,
    "Nom": "CARTE DE TRELON"
},
{
    "Identifiant": "34267",
    "Numéro S3IC": null,
    "Commune": "DIMONT",
    "Site en activité": "Non",
    "Exploitation en eau": "Non",
    "Substances": "Sables et graviers alluvionnaires",
    "Produits": "Granulat meuble divers",
    "Longitude": "4.040188",
    "Latitude": "50.178994",
    "Date de fin d'autorisation": null,
    "Nom": "CARTE DE TRELON"
},
{
    "Identifiant": "34284",
    "Numéro S3IC": null,
    "Commune": "AUXI-LE-CHATEAU",
    "Site en activité": "Non",
    "Exploitation en eau": "Non",
    "Substances": null,
    "Produits": null,
    "Longitude": "2.089398",
    "Latitude": "50.223181",
    "Date de fin d'autorisation": null,
    "Nom": "CARTE DE HESDIN"
},
{
    "Identifiant": "34292",
    "Numéro S3IC": null,
    "Commune": "BUIRE-AU-BOIS",
    "Site en activité": "Non",
    "Exploitation en eau": "Non",
    "Substances": "Craie",
    "Produits": null,
    "Longitude": "2.149962",
    "Latitude": "50.27409",
    "Date de fin d'autorisation": null,
    "Nom": "CARTE DE HESDIN"
},
{
    "Identifiant": "34293",
    "Numéro S3IC": null,
    "Commune": "VAULX",
    "Site en activité": "Non",
    "Exploitation en eau": "Non",
    "Substances": "Craie",
    "Produits": "Agriculture",
    "Longitude": "2.120581",
    "Latitude": "50.279361",
    "Date de fin d'autorisation": null,
    "Nom": "CARTE DE HESDIN"
},
{
    "Identifiant": "34295",
    "Numéro S3IC": null,
    "Commune": "QUŒUX-HAUT-MAINIL",
    "Site en activité": "Non",
    "Exploitation en eau": "Non",
    "Substances": "Craie",
    "Produits": "Agriculture",
    "Longitude": "2.129171",
    "Latitude": "50.306967",
    "Date de fin d'autorisation": null,
    "Nom": "CARTE DE HESDIN"
},
{
    "Identifiant": "34294",
    "Numéro S3IC": null,
    "Commune": "VAULX",
    "Site en activité": "Non",
    "Exploitation en eau": "Non",
    "Substances": "Craie",
    "Produits": "Agriculture",
    "Longitude": "2.113047",
    "Latitude": "50.280608",
    "Date de fin d'autorisation": null,
    "Nom": "CARTE DE HESDIN"
},
{
    "Identifiant": "34297",
    "Numéro S3IC": null,
    "Commune": "CAUMONT",
    "Site en activité": "Non",
    "Exploitation en eau": "Non",
    "Substances": "Craie",
    "Produits": "Agriculture",
    "Longitude": "2.048246",
    "Latitude": "50.29336",
    "Date de fin d'autorisation": null,
    "Nom": "CARTE DE HESDIN"
},
{
    "Identifiant": "34298",
    "Numéro S3IC": null,
    "Commune": "CHERIENNES",
    "Site en activité": "Non",
    "Exploitation en eau": "Non",
    "Substances": "Craie",
    "Produits": "Agriculture",
    "Longitude": "2.043557",
    "Latitude": "50.302623",
    "Date de fin d'autorisation": null,
    "Nom": "CARTE DE HESDIN"
},
{
    "Identifiant": "34275",
    "Numéro S3IC": null,
    "Commune": "ECCLES",
    "Site en activité": "Non",
    "Exploitation en eau": "Non",
    "Substances": null,
    "Produits": null,
    "Longitude": "4.109183",
    "Latitude": "50.205479",
    "Date de fin d'autorisation": null,
    "Nom": "CARTE DE TRELON"
},
{
    "Identifiant": "34299",
    "Numéro S3IC": null,
    "Commune": "CAUMONT",
    "Site en activité": "Non",
    "Exploitation en eau": "Non",
    "Substances": "Craie",
    "Produits": "Agriculture",
    "Longitude": "2.048079",
    "Latitude": "50.303797",
    "Date de fin d'autorisation": null,
    "Nom": "CARTE DE HESDIN"
},
{
    "Identifiant": "34300",
    "Numéro S3IC": null,
    "Commune": "CAUMONT",
    "Site en activité": "Non",
    "Exploitation en eau": "Non",
    "Substances": "Craie",
    "Produits": "Agriculture",
    "Longitude": "2.017074",
    "Latitude": "50.294786",
    "Date de fin d'autorisation": null,
    "Nom": "CARTE DE HESDIN"
},
{
    "Identifiant": "34301",
    "Numéro S3IC": null,
    "Commune": "GENNES-IVERGNY",
    "Site en activité": "Non",
    "Exploitation en eau": "Non",
    "Substances": "Craie",
    "Produits": "Agriculture",
    "Longitude": "2.042473",
    "Latitude": "50.273421",
    "Date de fin d'autorisation": null,
    "Nom": "CARTE DE HESDIN"
},
{
    "Identifiant": "34303",
    "Numéro S3IC": null,
    "Commune": "GOUY-SAINT-ANDRE",
    "Site en activité": "Non",
    "Exploitation en eau": "Non",
    "Substances": "Craie",
    "Produits": "Agriculture",
    "Longitude": "1.886357",
    "Latitude": "50.368644",
    "Date de fin d'autorisation": null,
    "Nom": "CARTE DE HESDIN"
},
{
    "Identifiant": "34302",
    "Numéro S3IC": null,
    "Commune": "GENNES-IVERGNY",
    "Site en activité": "Non",
    "Exploitation en eau": "Non",
    "Substances": "Craie",
    "Produits": "Agriculture",
    "Longitude": "2.062548",
    "Latitude": "50.261499",
    "Date de fin d'autorisation": null,
    "Nom": "CARTE DE HESDIN"
},
{
    "Identifiant": "34304",
    "Numéro S3IC": null,
    "Commune": "GOUY-SAINT-ANDRE",
    "Site en activité": "Non",
    "Exploitation en eau": "Non",
    "Substances": "Craie",
    "Produits": "Agriculture",
    "Longitude": "1.905948",
    "Latitude": "50.36802",
    "Date de fin d'autorisation": null,
    "Nom": "CARTE DE HESDIN"
},
{
    "Identifiant": "34305",
    "Numéro S3IC": null,
    "Commune": "GOUY-SAINT-ANDRE",
    "Site en activité": "Non",
    "Exploitation en eau": "Non",
    "Substances": "Craie",
    "Produits": "Agriculture",
    "Longitude": "1.888396",
    "Latitude": "50.362383",
    "Date de fin d'autorisation": null,
    "Nom": "CARTE DE HESDIN"
},
{
    "Identifiant": "34307",
    "Numéro S3IC": null,
    "Commune": "MOURIEZ",
    "Site en activité": "Non",
    "Exploitation en eau": "Non",
    "Substances": "Craie",
    "Produits": "Agriculture",
    "Longitude": "1.96815",
    "Latitude": "50.328556",
    "Date de fin d'autorisation": null,
    "Nom": "CARTE DE HESDIN"
},
{
    "Identifiant": "34308",
    "Numéro S3IC": null,
    "Commune": "GUIGNY",
    "Site en activité": "Non",
    "Exploitation en eau": "Non",
    "Substances": "Craie",
    "Produits": "Agriculture",
    "Longitude": "2.003751",
    "Latitude": "50.333091",
    "Date de fin d'autorisation": null,
    "Nom": "CARTE DE HESDIN"
},
{
    "Identifiant": "34309",
    "Numéro S3IC": null,
    "Commune": "REGNAUVILLE",
    "Site en activité": "Non",
    "Exploitation en eau": "Non",
    "Substances": "Craie",
    "Produits": "Agriculture",
    "Longitude": "1.999123",
    "Latitude": "50.323971",
    "Date de fin d'autorisation": null,
    "Nom": "CARTE DE HESDIN"
},
{
    "Identifiant": "34310",
    "Numéro S3IC": null,
    "Commune": "TOLLENT",
    "Site en activité": "Non",
    "Exploitation en eau": "Non",
    "Substances": "Craie",
    "Produits": "Agriculture",
    "Longitude": "1.995323",
    "Latitude": "50.278394",
    "Date de fin d'autorisation": null,
    "Nom": "CARTE DE HESDIN"
},
{
    "Identifiant": "34311",
    "Numéro S3IC": null,
    "Commune": "SAINT-GEORGES",
    "Site en activité": "Non",
    "Exploitation en eau": "Non",
    "Substances": "Craie",
    "Produits": "Agriculture",
    "Longitude": "2.067468",
    "Latitude": "50.350919",
    "Date de fin d'autorisation": null,
    "Nom": "CARTE DE HESDIN"
},
{
    "Identifiant": "34312",
    "Numéro S3IC": null,
    "Commune": "SAINT-GEORGES",
    "Site en activité": "Non",
    "Exploitation en eau": "Non",
    "Substances": "Craie",
    "Produits": "Agriculture",
    "Longitude": "2.056445",
    "Latitude": "50.355711",
    "Date de fin d'autorisation": null,
    "Nom": "CARTE DE HESDIN"
},
{
    "Identifiant": "34313",
    "Numéro S3IC": null,
    "Commune": "SAINTE-AUSTREBERTHE",
    "Site en activité": "Non",
    "Exploitation en eau": "Non",
    "Substances": "Craie",
    "Produits": "Agriculture",
    "Longitude": "2.03569",
    "Latitude": "50.359789",
    "Date de fin d'autorisation": null,
    "Nom": "CARTE DE HESDIN"
},
{
    "Identifiant": "34314",
    "Numéro S3IC": null,
    "Commune": "MARCONNELLE",
    "Site en activité": "Non",
    "Exploitation en eau": "Non",
    "Substances": "Craie",
    "Produits": "Agriculture",
    "Longitude": "1.994838",
    "Latitude": "50.369059",
    "Date de fin d'autorisation": null,
    "Nom": "CARTE DE HESDIN"
},
{
    "Identifiant": "34315",
    "Numéro S3IC": null,
    "Commune": "TORTEFONTAINE",
    "Site en activité": "Non",
    "Exploitation en eau": "Non",
    "Substances": "Craie",
    "Produits": "Agriculture",
    "Longitude": "1.915735",
    "Latitude": "50.319277",
    "Date de fin d'autorisation": null,
    "Nom": "CARTE DE HESDIN"
},
{
    "Identifiant": "34316",
    "Numéro S3IC": null,
    "Commune": "BEAURAINVILLE",
    "Site en activité": "Non",
    "Exploitation en eau": "Non",
    "Substances": "Craie",
    "Produits": "Agriculture",
    "Longitude": "1.908638",
    "Latitude": "50.39791",
    "Date de fin d'autorisation": null,
    "Nom": "CARTE DE HESDIN"
},
{
    "Identifiant": "34317",
    "Numéro S3IC": null,
    "Commune": "GOUY-SAINT-ANDRE",
    "Site en activité": "Non",
    "Exploitation en eau": "Non",
    "Substances": "Craie",
    "Produits": "Agriculture",
    "Longitude": "1.933094",
    "Latitude": "50.389032",
    "Date de fin d'autorisation": null,
    "Nom": "CARTE DE HESDIN"
},
{
    "Identifiant": "34318",
    "Numéro S3IC": null,
    "Commune": "BOUIN-PLUMOISON",
    "Site en activité": "Non",
    "Exploitation en eau": "Non",
    "Substances": "Craie",
    "Produits": "Agriculture",
    "Longitude": "1.980771",
    "Latitude": "50.370998",
    "Date de fin d'autorisation": null,
    "Nom": "CARTE DE HESDIN"
},
{
    "Identifiant": "34319",
    "Numéro S3IC": null,
    "Commune": "GUISY",
    "Site en activité": "Non",
    "Exploitation en eau": "Non",
    "Substances": "Craie",
    "Produits": "Agriculture",
    "Longitude": "1.996366",
    "Latitude": "50.391855",
    "Date de fin d'autorisation": null,
    "Nom": "CARTE DE HESDIN"
},
{
    "Identifiant": "34320",
    "Numéro S3IC": null,
    "Commune": "GRIGNY",
    "Site en activité": "Non",
    "Exploitation en eau": "Non",
    "Substances": "Craie",
    "Produits": "Agriculture",
    "Longitude": "2.062755",
    "Latitude": "50.374539",
    "Date de fin d'autorisation": null,
    "Nom": "CARTE DE HESDIN"
},
{
    "Identifiant": "34321",
    "Numéro S3IC": null,
    "Commune": "VACQUERIETTE-ERQUIERES",
    "Site en activité": "Non",
    "Exploitation en eau": "Non",
    "Substances": "Craie",
    "Produits": "Agriculture",
    "Longitude": "2.067994",
    "Latitude": "50.322263",
    "Date de fin d'autorisation": null,
    "Nom": "CARTE DE HESDIN"
},
{
    "Identifiant": "34322",
    "Numéro S3IC": null,
    "Commune": "AUXI-LE-CHATEAU",
    "Site en activité": "Non",
    "Exploitation en eau": "Non",
    "Substances": "Craie",
    "Produits": "Agriculture",
    "Longitude": "2.102049",
    "Latitude": "50.246413",
    "Date de fin d'autorisation": null,
    "Nom": "CARTE DE HESDIN"
},
{
    "Identifiant": "34323",
    "Numéro S3IC": null,
    "Commune": "VAULX",
    "Site en activité": "Non",
    "Exploitation en eau": "Non",
    "Substances": "Craie",
    "Produits": "Agriculture",
    "Longitude": "2.086828",
    "Latitude": "50.269608",
    "Date de fin d'autorisation": null,
    "Nom": "CARTE DE HESDIN"
},
{
    "Identifiant": "34583",
    "Numéro S3IC": null,
    "Commune": "FLAUMONT-WAUDRECHIES",
    "Site en activité": "Non",
    "Exploitation en eau": "Non",
    "Substances": null,
    "Produits": null,
    "Longitude": "3.965423",
    "Latitude": "50.120116",
    "Date de fin d'autorisation": null,
    "Nom": "CARTE DE TRELON"
},
{
    "Identifiant": "34326",
    "Numéro S3IC": null,
    "Commune": "GALAMETZ",
    "Site en activité": "Non",
    "Exploitation en eau": "Non",
    "Substances": "Craie",
    "Produits": "Agriculture",
    "Longitude": "2.12483",
    "Latitude": "50.32307",
    "Date de fin d'autorisation": null,
    "Nom": "CARTE DE HESDIN"
},
{
    "Identifiant": "34328",
    "Numéro S3IC": null,
    "Commune": "VIEIL-HESDIN",
    "Site en activité": "Non",
    "Exploitation en eau": "Non",
    "Substances": "Craie",
    "Produits": "Agriculture",
    "Longitude": "2.107903",
    "Latitude": "50.373304",
    "Date de fin d'autorisation": null,
    "Nom": "CARTE DE HESDIN"
},
{
    "Identifiant": "34329",
    "Numéro S3IC": null,
    "Commune": "VIEIL-HESDIN",
    "Site en activité": "Non",
    "Exploitation en eau": "Non",
    "Substances": "Craie",
    "Produits": "Agriculture",
    "Longitude": "2.104091",
    "Latitude": "50.363702",
    "Date de fin d'autorisation": null,
    "Nom": "CARTE DE HESDIN"
},
{
    "Identifiant": "34330",
    "Numéro S3IC": null,
    "Commune": "FRESNOY",
    "Site en activité": "Non",
    "Exploitation en eau": "Non",
    "Substances": "Craie",
    "Produits": "Agriculture",
    "Longitude": "2.141695",
    "Latitude": "50.37507",
    "Date de fin d'autorisation": null,
    "Nom": "CARTE DE HESDIN"
},
{
    "Identifiant": "35488",
    "Numéro S3IC": null,
    "Commune": "BELLEFONTAINE",
    "Site en activité": "Non",
    "Exploitation en eau": "Non",
    "Substances": null,
    "Produits": null,
    "Longitude": "6.496458",
    "Latitude": "48.032673",
    "Date de fin d'autorisation": null,
    "Nom": "CARTE DE REMIREMONT"
},
{
    "Identifiant": "34331",
    "Numéro S3IC": null,
    "Commune": "ROLLANCOURT",
    "Site en activité": "Non",
    "Exploitation en eau": "Non",
    "Substances": "Craie",
    "Produits": "Agriculture",
    "Longitude": "2.130214",
    "Latitude": "50.395379",
    "Date de fin d'autorisation": null,
    "Nom": "CARTE DE HESDIN"
},
{
    "Identifiant": "34332",
    "Numéro S3IC": null,
    "Commune": "VIEIL-HESDIN",
    "Site en activité": "Non",
    "Exploitation en eau": "Non",
    "Substances": "Calcaire",
    "Produits": "Concassé de roche calcaire",
    "Longitude": "2.116391",
    "Latitude": "50.3582",
    "Date de fin d'autorisation": null,
    "Nom": "CARTE DE HESDIN"
},
{
    "Identifiant": "34333",
    "Numéro S3IC": null,
    "Commune": "ROLLANCOURT",
    "Site en activité": "Non",
    "Exploitation en eau": "Non",
    "Substances": null,
    "Produits": null,
    "Longitude": "2.142427",
    "Latitude": "50.389846",
    "Date de fin d'autorisation": null,
    "Nom": "CARTE DE HESDIN"
},
{
    "Identifiant": "34334",
    "Numéro S3IC": null,
    "Commune": "AUCHY-LES-HESDIN",
    "Site en activité": "Non",
    "Exploitation en eau": "Non",
    "Substances": null,
    "Produits": null,
    "Longitude": "2.106527",
    "Latitude": "50.382783",
    "Date de fin d'autorisation": null,
    "Nom": "CARTE DE HESDIN"
},
{
    "Identifiant": "34337",
    "Numéro S3IC": null,
    "Commune": "FRESNOY",
    "Site en activité": "Non",
    "Exploitation en eau": "Non",
    "Substances": null,
    "Produits": null,
    "Longitude": "2.142841",
    "Latitude": "50.375762",
    "Date de fin d'autorisation": null,
    "Nom": "CARTE DE HESDIN"
},
{
    "Identifiant": "34335",
    "Numéro S3IC": null,
    "Commune": "INCOURT",
    "Site en activité": "Non",
    "Exploitation en eau": "Non",
    "Substances": null,
    "Produits": null,
    "Longitude": "2.150745",
    "Latitude": "50.379817",
    "Date de fin d'autorisation": null,
    "Nom": "CARTE DE HESDIN"
},
{
    "Identifiant": "34338",
    "Numéro S3IC": null,
    "Commune": "WILLEMAN",
    "Site en activité": "Non",
    "Exploitation en eau": "Non",
    "Substances": "Craie",
    "Produits": "Agriculture",
    "Longitude": "2.150102",
    "Latitude": "50.359222",
    "Date de fin d'autorisation": null,
    "Nom": "CARTE DE HESDIN"
},
{
    "Identifiant": "34336",
    "Numéro S3IC": null,
    "Commune": "FRESNOY",
    "Site en activité": "Non",
    "Exploitation en eau": "Non",
    "Substances": null,
    "Produits": null,
    "Longitude": "2.151759",
    "Latitude": "50.37816",
    "Date de fin d'autorisation": null,
    "Nom": "CARTE DE HESDIN"
},
{
    "Identifiant": "34339",
    "Numéro S3IC": null,
    "Commune": "WILLEMAN",
    "Site en activité": "Non",
    "Exploitation en eau": "Non",
    "Substances": null,
    "Produits": null,
    "Longitude": "2.155244",
    "Latitude": "50.349832",
    "Date de fin d'autorisation": null,
    "Nom": "CARTE DE HESDIN"
},
{
    "Identifiant": "34340",
    "Numéro S3IC": null,
    "Commune": "VIEIL-HESDIN",
    "Site en activité": "Non",
    "Exploitation en eau": "Non",
    "Substances": null,
    "Produits": null,
    "Longitude": "2.098318",
    "Latitude": "50.353017",
    "Date de fin d'autorisation": null,
    "Nom": "CARTE DE HESDIN"
},
{
    "Identifiant": "34342",
    "Numéro S3IC": null,
    "Commune": "VIEIL-HESDIN",
    "Site en activité": "Non",
    "Exploitation en eau": "Non",
    "Substances": null,
    "Produits": null,
    "Longitude": "2.108841",
    "Latitude": "50.349352",
    "Date de fin d'autorisation": null,
    "Nom": "CARTE DE HESDIN"
},
{
    "Identifiant": "34343",
    "Numéro S3IC": null,
    "Commune": "SAINT-GEORGES",
    "Site en activité": "Non",
    "Exploitation en eau": "Non",
    "Substances": null,
    "Produits": null,
    "Longitude": "2.074344",
    "Latitude": "50.347757",
    "Date de fin d'autorisation": null,
    "Nom": "CARTE DE HESDIN"
},
{
    "Identifiant": "34344",
    "Numéro S3IC": null,
    "Commune": "SAINT-GEORGES",
    "Site en activité": "Non",
    "Exploitation en eau": "Non",
    "Substances": null,
    "Produits": null,
    "Longitude": "2.075961",
    "Latitude": "50.353432",
    "Date de fin d'autorisation": null,
    "Nom": "CARTE DE HESDIN"
},
{
    "Identifiant": "34345",
    "Numéro S3IC": null,
    "Commune": "SAINT-GEORGES",
    "Site en activité": "Non",
    "Exploitation en eau": "Non",
    "Substances": null,
    "Produits": null,
    "Longitude": "2.072965",
    "Latitude": "50.351789",
    "Date de fin d'autorisation": null,
    "Nom": "CARTE DE HESDIN"
},
{
    "Identifiant": "34346",
    "Numéro S3IC": null,
    "Commune": "SAINTE-AUSTREBERTHE",
    "Site en activité": "Non",
    "Exploitation en eau": "Non",
    "Substances": "Craie",
    "Produits": "Agriculture",
    "Longitude": "2.044383",
    "Latitude": "50.352366",
    "Date de fin d'autorisation": null,
    "Nom": "CARTE DE HESDIN"
},
{
    "Identifiant": "34348",
    "Numéro S3IC": null,
    "Commune": "SAINT-GEORGES",
    "Site en activité": "Non",
    "Exploitation en eau": "Non",
    "Substances": null,
    "Produits": null,
    "Longitude": "2.053918",
    "Latitude": "50.352783",
    "Date de fin d'autorisation": null,
    "Nom": "CARTE DE HESDIN"
},
{
    "Identifiant": "34349",
    "Numéro S3IC": null,
    "Commune": "SAINTE-AUSTREBERTHE",
    "Site en activité": "Non",
    "Exploitation en eau": "Non",
    "Substances": "Sables et graviers alluvionnaires",
    "Produits": "Granulat meuble divers",
    "Longitude": "2.052029",
    "Latitude": "50.355054",
    "Date de fin d'autorisation": null,
    "Nom": "CARTE DE HESDIN"
},
{
    "Identifiant": "34350",
    "Numéro S3IC": null,
    "Commune": "MARCONNE",
    "Site en activité": "Non",
    "Exploitation en eau": "Non",
    "Substances": null,
    "Produits": null,
    "Longitude": "2.020831",
    "Latitude": "50.359682",
    "Date de fin d'autorisation": null,
    "Nom": "CARTE DE HESDIN"
},
{
    "Identifiant": "34351",
    "Numéro S3IC": null,
    "Commune": "BREVILLERS",
    "Site en activité": "Non",
    "Exploitation en eau": "Non",
    "Substances": null,
    "Produits": null,
    "Longitude": "2.025022",
    "Latitude": "50.355356",
    "Date de fin d'autorisation": null,
    "Nom": "CARTE DE HESDIN"
},
{
    "Identifiant": "35509",
    "Numéro S3IC": null,
    "Commune": "SAINT-NABORD",
    "Site en activité": "Non",
    "Exploitation en eau": "Non",
    "Substances": null,
    "Produits": null,
    "Longitude": "6.572115",
    "Latitude": "48.058971",
    "Date de fin d'autorisation": null,
    "Nom": "CARTE DE REMIREMONT"
},
{
    "Identifiant": "34352",
    "Numéro S3IC": null,
    "Commune": "SAINTE-AUSTREBERTHE",
    "Site en activité": "Non",
    "Exploitation en eau": "Non",
    "Substances": null,
    "Produits": null,
    "Longitude": "2.034041",
    "Latitude": "50.357411",
    "Date de fin d'autorisation": null,
    "Nom": "CARTE DE HESDIN"
},
{
    "Identifiant": "34356",
    "Numéro S3IC": null,
    "Commune": "MARCONNE",
    "Site en activité": "Non",
    "Exploitation en eau": "Non",
    "Substances": null,
    "Produits": null,
    "Longitude": "2.030052",
    "Latitude": "50.367932",
    "Date de fin d'autorisation": null,
    "Nom": "CARTE DE HESDIN"
},
{
    "Identifiant": "34355",
    "Numéro S3IC": null,
    "Commune": "MARCONNELLE",
    "Site en activité": "Non",
    "Exploitation en eau": "Non",
    "Substances": null,
    "Produits": null,
    "Longitude": "2.012087",
    "Latitude": "50.364673",
    "Date de fin d'autorisation": null,
    "Nom": "CARTE DE HESDIN"
},
{
    "Identifiant": "34354",
    "Numéro S3IC": null,
    "Commune": "MARCONNELLE",
    "Site en activité": "Non",
    "Exploitation en eau": "Non",
    "Substances": null,
    "Produits": null,
    "Longitude": "2.015499",
    "Latitude": "50.364989",
    "Date de fin d'autorisation": null,
    "Nom": "CARTE DE HESDIN"
},
{
    "Identifiant": "34353",
    "Numéro S3IC": null,
    "Commune": "MARCONNELLE",
    "Site en activité": "Non",
    "Exploitation en eau": "Non",
    "Substances": null,
    "Produits": null,
    "Longitude": "2.013762",
    "Latitude": "50.366425",
    "Date de fin d'autorisation": null,
    "Nom": "CARTE DE HESDIN"
},
{
    "Identifiant": "34359",
    "Numéro S3IC": null,
    "Commune": "MARCONNELLE",
    "Site en activité": "Non",
    "Exploitation en eau": "Non",
    "Substances": "Silt, limon",
    "Produits": "Terre cuite",
    "Longitude": "2.021755",
    "Latitude": "50.372099",
    "Date de fin d'autorisation": null,
    "Nom": "CARTE DE HESDIN"
},
{
    "Identifiant": "34358",
    "Numéro S3IC": null,
    "Commune": "MARCONNE",
    "Site en activité": "Non",
    "Exploitation en eau": "Non",
    "Substances": "Silt, limon",
    "Produits": "Terre cuite",
    "Longitude": "2.031971",
    "Latitude": "50.369271",
    "Date de fin d'autorisation": null,
    "Nom": "CARTE DE HESDIN"
},
{
    "Identifiant": "34360",
    "Numéro S3IC": null,
    "Commune": "MARCONNE",
    "Site en activité": "Non",
    "Exploitation en eau": "Non",
    "Substances": "Craie",
    "Produits": "Agriculture",
    "Longitude": "2.01894",
    "Latitude": "50.356853",
    "Date de fin d'autorisation": null,
    "Nom": "CARTE DE HESDIN"
},
{
    "Identifiant": "33864",
    "Numéro S3IC": null,
    "Commune": "NOYELLES-SOUS-BELLONNE",
    "Site en activité": "Non",
    "Exploitation en eau": "Non",
    "Substances": null,
    "Produits": null,
    "Longitude": "3.008792",
    "Latitude": "50.298984",
    "Date de fin d'autorisation": null,
    "Nom": "CARTE DE DOUAI"
},
{
    "Identifiant": "34363",
    "Numéro S3IC": null,
    "Commune": "CREVECŒUR-SUR-L'ESCAUT",
    "Site en activité": "Non",
    "Exploitation en eau": "Non",
    "Substances": "Sables et graviers alluvionnaires",
    "Produits": "Granulat meuble divers",
    "Longitude": "3.25796",
    "Latitude": "50.053024",
    "Date de fin d'autorisation": null,
    "Nom": "CARTE DE LE CATEAU"
},
{
    "Identifiant": "34362",
    "Numéro S3IC": null,
    "Commune": "LES RUES-DES-VIGNES",
    "Site en activité": "Non",
    "Exploitation en eau": "Non",
    "Substances": null,
    "Produits": null,
    "Longitude": "3.255059",
    "Latitude": "50.049666",
    "Date de fin d'autorisation": null,
    "Nom": "CARTE DE LE CATEAU"
},
{
    "Identifiant": "33866",
    "Numéro S3IC": null,
    "Commune": "NOYELLES-SOUS-BELLONNE",
    "Site en activité": "Non",
    "Exploitation en eau": "Non",
    "Substances": null,
    "Produits": null,
    "Longitude": "3.020743",
    "Latitude": "50.302689",
    "Date de fin d'autorisation": null,
    "Nom": "CARTE DE DOUAI"
},
{
    "Identifiant": "33899",
    "Numéro S3IC": null,
    "Commune": "SAINT-SAULVE",
    "Site en activité": "Non",
    "Exploitation en eau": "Non",
    "Substances": "Calcaire",
    "Produits": "Chaux",
    "Longitude": "3.548466",
    "Latitude": "50.36146",
    "Date de fin d'autorisation": null,
    "Nom": "CARTE DE VALENCIENNES"
},
{
    "Identifiant": "33930",
    "Numéro S3IC": null,
    "Commune": "BELLIGNIES",
    "Site en activité": "Non",
    "Exploitation en eau": "Non",
    "Substances": null,
    "Produits": null,
    "Longitude": "3.767499",
    "Latitude": "50.333381",
    "Date de fin d'autorisation": null,
    "Nom": "CARTE DE LE QUESNOY"
},
{
    "Identifiant": "33953",
    "Numéro S3IC": null,
    "Commune": "HON-HERGIES",
    "Site en activité": "Non",
    "Exploitation en eau": "Non",
    "Substances": "Calcaire",
    "Produits": "Pierres ornementales",
    "Longitude": "3.802369",
    "Latitude": "50.32579",
    "Date de fin d'autorisation": null,
    "Nom": "CARTE DE LE QUESNOY"
},
{
    "Identifiant": "33954",
    "Numéro S3IC": null,
    "Commune": "HON-HERGIES",
    "Site en activité": "Non",
    "Exploitation en eau": "Non",
    "Substances": "Calcaire",
    "Produits": "Pierres ornementales",
    "Longitude": "3.799091",
    "Latitude": "50.326821",
    "Date de fin d'autorisation": null,
    "Nom": "CARTE DE LE QUESNOY"
},
{
    "Identifiant": "33991",
    "Numéro S3IC": null,
    "Commune": "HELESMES",
    "Site en activité": "Non",
    "Exploitation en eau": "Non",
    "Substances": "Calcaire",
    "Produits": "Chaux",
    "Longitude": "3.363066",
    "Latitude": "50.357405",
    "Date de fin d'autorisation": null,
    "Nom": "CARTE DE VALENCIENNES"
},
{
    "Identifiant": "35181",
    "Numéro S3IC": null,
    "Commune": "RUPT-SUR-OTHAIN",
    "Site en activité": "Non",
    "Exploitation en eau": "Non",
    "Substances": null,
    "Produits": null,
    "Longitude": "5.487513",
    "Latitude": "49.415882",
    "Date de fin d'autorisation": null,
    "Nom": "CARTE DE LONGUYON"
},
{
    "Identifiant": "34059",
    "Numéro S3IC": null,
    "Commune": "VERTON",
    "Site en activité": "Non",
    "Exploitation en eau": "Non",
    "Substances": null,
    "Produits": null,
    "Longitude": "1.663255",
    "Latitude": "50.395366",
    "Date de fin d'autorisation": null,
    "Nom": "CARTE DE RUE"
},
{
    "Identifiant": "34079",
    "Numéro S3IC": null,
    "Commune": "GUINECOURT",
    "Site en activité": "Non",
    "Exploitation en eau": "Non",
    "Substances": "Craie",
    "Produits": "Agriculture",
    "Longitude": "2.235292",
    "Latitude": "50.346995",
    "Date de fin d'autorisation": null,
    "Nom": "CARTE DE ST-POL-SUR-TERNOISE"
},
{
    "Identifiant": "34094",
    "Numéro S3IC": null,
    "Commune": "HAUTECLOQUE",
    "Site en activité": "Non",
    "Exploitation en eau": "Non",
    "Substances": "Craie",
    "Produits": "Agriculture",
    "Longitude": "2.313877",
    "Latitude": "50.33802",
    "Date de fin d'autorisation": null,
    "Nom": "CARTE DE ST-POL-SUR-TERNOISE"
},
{
    "Identifiant": "34110",
    "Numéro S3IC": null,
    "Commune": "RAMECOURT",
    "Site en activité": "Non",
    "Exploitation en eau": "Non",
    "Substances": null,
    "Produits": null,
    "Longitude": "2.322699",
    "Latitude": "50.366603",
    "Date de fin d'autorisation": null,
    "Nom": "CARTE DE ST-POL-SUR-TERNOISE"
},
{
    "Identifiant": "34125",
    "Numéro S3IC": null,
    "Commune": "DENIER",
    "Site en activité": "Non",
    "Exploitation en eau": "Non",
    "Substances": null,
    "Produits": null,
    "Longitude": "2.44815",
    "Latitude": "50.282785",
    "Date de fin d'autorisation": null,
    "Nom": "CARTE DE ST-POL-SUR-TERNOISE"
},
{
    "Identifiant": "34144",
    "Numéro S3IC": null,
    "Commune": "BOUSIGNIES-SUR-ROC",
    "Site en activité": "Non",
    "Exploitation en eau": "Non",
    "Substances": null,
    "Produits": null,
    "Longitude": "4.177428",
    "Latitude": "50.265366",
    "Date de fin d'autorisation": null,
    "Nom": "CARTE DE MAUBEUGE"
},
{
    "Identifiant": "34159",
    "Numéro S3IC": null,
    "Commune": "JEUMONT",
    "Site en activité": "Non",
    "Exploitation en eau": "Non",
    "Substances": null,
    "Produits": null,
    "Longitude": "4.099691",
    "Latitude": "50.30521",
    "Date de fin d'autorisation": null,
    "Nom": "CARTE DE MAUBEUGE"
},
{
    "Identifiant": "34176",
    "Numéro S3IC": null,
    "Commune": "FREVENT",
    "Site en activité": "Non",
    "Exploitation en eau": "Non",
    "Substances": null,
    "Produits": null,
    "Longitude": "2.295755",
    "Latitude": "50.259325",
    "Date de fin d'autorisation": null,
    "Nom": "CARTE DE ST-POL-SUR-TERNOISE"
},
{
    "Identifiant": "34195",
    "Numéro S3IC": null,
    "Commune": "NUNCQ-HAUTECOTE",
    "Site en activité": "Non",
    "Exploitation en eau": "Non",
    "Substances": null,
    "Produits": null,
    "Longitude": "2.272989",
    "Latitude": "50.300555",
    "Date de fin d'autorisation": null,
    "Nom": "CARTE DE ST-POL-SUR-TERNOISE"
},
{
    "Identifiant": "34208",
    "Numéro S3IC": null,
    "Commune": "GUINECOURT",
    "Site en activité": "Non",
    "Exploitation en eau": "Non",
    "Substances": null,
    "Produits": null,
    "Longitude": "2.227",
    "Latitude": "50.342602",
    "Date de fin d'autorisation": null,
    "Nom": "CARTE DE ST-POL-SUR-TERNOISE"
},
{
    "Identifiant": "34230",
    "Numéro S3IC": null,
    "Commune": "AUBIGNY-EN-ARTOIS",
    "Site en activité": "Non",
    "Exploitation en eau": "Non",
    "Substances": "Craie",
    "Produits": "Agriculture",
    "Longitude": "2.600425",
    "Latitude": "50.340405",
    "Date de fin d'autorisation": null,
    "Nom": "CARTE DE ARRAS"
},
{
    "Identifiant": "34364",
    "Numéro S3IC": null,
    "Commune": "LES RUES-DES-VIGNES",
    "Site en activité": "Non",
    "Exploitation en eau": "Non",
    "Substances": null,
    "Produits": null,
    "Longitude": "3.243514",
    "Latitude": "50.086574",
    "Date de fin d'autorisation": null,
    "Nom": "CARTE DE LE CATEAU"
},
{
    "Identifiant": "34245",
    "Numéro S3IC": null,
    "Commune": "SOUCHEZ",
    "Site en activité": "Non",
    "Exploitation en eau": "Non",
    "Substances": null,
    "Produits": null,
    "Longitude": "2.752583",
    "Latitude": "50.395271",
    "Date de fin d'autorisation": null,
    "Nom": "CARTE DE ARRAS"
},
{
    "Identifiant": "34365",
    "Numéro S3IC": null,
    "Commune": "LESDAIN",
    "Site en activité": "Non",
    "Exploitation en eau": "Non",
    "Substances": null,
    "Produits": null,
    "Longitude": "3.269711",
    "Latitude": "50.082007",
    "Date de fin d'autorisation": null,
    "Nom": "CARTE DE LE CATEAU"
},
{
    "Identifiant": "34367",
    "Numéro S3IC": null,
    "Commune": "CREVECŒUR-SUR-L'ESCAUT",
    "Site en activité": "Non",
    "Exploitation en eau": "Non",
    "Substances": null,
    "Produits": null,
    "Longitude": "3.241392",
    "Latitude": "50.111099",
    "Date de fin d'autorisation": null,
    "Nom": "CARTE DE LE CATEAU"
},
{
    "Identifiant": "34366",
    "Numéro S3IC": null,
    "Commune": "LES RUES-DES-VIGNES",
    "Site en activité": "Non",
    "Exploitation en eau": "Non",
    "Substances": null,
    "Produits": null,
    "Longitude": "3.248873",
    "Latitude": "50.093457",
    "Date de fin d'autorisation": null,
    "Nom": "CARTE DE LE CATEAU"
},
{
    "Identifiant": "34369",
    "Numéro S3IC": null,
    "Commune": "CREVECŒUR-SUR-L'ESCAUT",
    "Site en activité": "Non",
    "Exploitation en eau": "Non",
    "Substances": "Craie",
    "Produits": "Chaux",
    "Longitude": "3.257632",
    "Latitude": "50.102974",
    "Date de fin d'autorisation": null,
    "Nom": "CARTE DE LE CATEAU"
},
{
    "Identifiant": "34370",
    "Numéro S3IC": null,
    "Commune": "LESDAIN",
    "Site en activité": "Non",
    "Exploitation en eau": "Non",
    "Substances": "Craie",
    "Produits": "Chaux",
    "Longitude": "3.273369",
    "Latitude": "50.104565",
    "Date de fin d'autorisation": null,
    "Nom": "CARTE DE LE CATEAU"
},
{
    "Identifiant": "34371",
    "Numéro S3IC": null,
    "Commune": "CREVECŒUR-SUR-L'ESCAUT",
    "Site en activité": "Non",
    "Exploitation en eau": "Non",
    "Substances": null,
    "Produits": null,
    "Longitude": "3.260191",
    "Latitude": "50.103866",
    "Date de fin d'autorisation": null,
    "Nom": "CARTE DE LE CATEAU"
},
{
    "Identifiant": "34372",
    "Numéro S3IC": null,
    "Commune": "ESNES",
    "Site en activité": "Non",
    "Exploitation en eau": "Non",
    "Substances": null,
    "Produits": null,
    "Longitude": "3.295888",
    "Latitude": "50.103912",
    "Date de fin d'autorisation": null,
    "Nom": "CARTE DE LE CATEAU"
},
{
    "Identifiant": "35531",
    "Numéro S3IC": null,
    "Commune": "LE VAL-D'AJOL",
    "Site en activité": "Non",
    "Exploitation en eau": "Non",
    "Substances": null,
    "Produits": null,
    "Longitude": "6.506127",
    "Latitude": "47.905303",
    "Date de fin d'autorisation": null,
    "Nom": "CARTE DE REMIREMONT"
},
{
    "Identifiant": "34373",
    "Numéro S3IC": null,
    "Commune": "LIGNY-EN-CAMBRESIS",
    "Site en activité": "Non",
    "Exploitation en eau": "Non",
    "Substances": null,
    "Produits": null,
    "Longitude": "3.341869",
    "Latitude": "50.113922",
    "Date de fin d'autorisation": null,
    "Nom": "CARTE DE LE CATEAU"
},
{
    "Identifiant": "34368",
    "Numéro S3IC": null,
    "Commune": "CREVECŒUR-SUR-L'ESCAUT",
    "Site en activité": "Non",
    "Exploitation en eau": "Non",
    "Substances": null,
    "Produits": null,
    "Longitude": "3.246995",
    "Latitude": "50.111638",
    "Date de fin d'autorisation": null,
    "Nom": "CARTE DE LE CATEAU"
},
{
    "Identifiant": "34375",
    "Numéro S3IC": null,
    "Commune": "CAMBRAI",
    "Site en activité": "Non",
    "Exploitation en eau": "Non",
    "Substances": null,
    "Produits": null,
    "Longitude": "3.251549",
    "Latitude": "50.158236",
    "Date de fin d'autorisation": null,
    "Nom": "CARTE DE LE CATEAU"
},
{
    "Identifiant": "34376",
    "Numéro S3IC": null,
    "Commune": "CAMBRAI",
    "Site en activité": "Non",
    "Exploitation en eau": "Non",
    "Substances": null,
    "Produits": null,
    "Longitude": "3.262199",
    "Latitude": "50.173566",
    "Date de fin d'autorisation": null,
    "Nom": "CARTE DE LE CATEAU"
},
{
    "Identifiant": "34377",
    "Numéro S3IC": null,
    "Commune": "RAMILLIES",
    "Site en activité": "Non",
    "Exploitation en eau": "Non",
    "Substances": null,
    "Produits": null,
    "Longitude": "3.253084",
    "Latitude": "50.207496",
    "Date de fin d'autorisation": null,
    "Nom": "CARTE DE LE CATEAU"
},
{
    "Identifiant": "34378",
    "Numéro S3IC": null,
    "Commune": "CAGNONCLES",
    "Site en activité": "Non",
    "Exploitation en eau": "Non",
    "Substances": "Silt, limon",
    "Produits": "Terre cuite",
    "Longitude": "3.304559",
    "Latitude": "50.189877",
    "Date de fin d'autorisation": null,
    "Nom": "CARTE DE LE CATEAU"
},
{
    "Identifiant": "34380",
    "Numéro S3IC": null,
    "Commune": "CATTENIERES",
    "Site en activité": "Non",
    "Exploitation en eau": "Non",
    "Substances": "Calcaire",
    "Produits": "Chaux",
    "Longitude": "3.319721",
    "Latitude": "50.138846",
    "Date de fin d'autorisation": null,
    "Nom": "CARTE DE LE CATEAU"
},
{
    "Identifiant": "34382",
    "Numéro S3IC": null,
    "Commune": "BEVILLERS",
    "Site en activité": "Non",
    "Exploitation en eau": "Non",
    "Substances": "Calcaire",
    "Produits": "Chaux",
    "Longitude": "3.380054",
    "Latitude": "50.155254",
    "Date de fin d'autorisation": null,
    "Nom": "CARTE DE LE CATEAU"
},
{
    "Identifiant": "34263",
    "Numéro S3IC": null,
    "Commune": "DIMONT",
    "Site en activité": "Non",
    "Exploitation en eau": "Non",
    "Substances": "Sables et graviers alluvionnaires",
    "Produits": "Granulat meuble divers",
    "Longitude": "4.044152",
    "Latitude": "50.176499",
    "Date de fin d'autorisation": null,
    "Nom": "CARTE DE TRELON"
},
{
    "Identifiant": "34379",
    "Numéro S3IC": null,
    "Commune": "WAMBAIX",
    "Site en activité": "Non",
    "Exploitation en eau": "Non",
    "Substances": "Calcaire",
    "Produits": "Chaux",
    "Longitude": "3.304439",
    "Latitude": "50.137857",
    "Date de fin d'autorisation": null,
    "Nom": "CARTE DE LE CATEAU"
},
{
    "Identifiant": "34396",
    "Numéro S3IC": null,
    "Commune": "LE CATEAU-CAMBRESIS",
    "Site en activité": "Non",
    "Exploitation en eau": "Non",
    "Substances": "Sables et graviers alluvionnaires",
    "Produits": "Granulat meuble divers",
    "Longitude": "3.57379",
    "Latitude": "50.102316",
    "Date de fin d'autorisation": null,
    "Nom": "CARTE DE LE CATEAU"
},
{
    "Identifiant": "34383",
    "Numéro S3IC": null,
    "Commune": "BEAUVOIS-EN-CAMBRESIS",
    "Site en activité": "Non",
    "Exploitation en eau": "Non",
    "Substances": "Silt, limon",
    "Produits": "Terre cuite",
    "Longitude": "3.380331",
    "Latitude": "50.144996",
    "Date de fin d'autorisation": null,
    "Nom": "CARTE DE LE CATEAU"
},
{
    "Identifiant": "34391",
    "Numéro S3IC": null,
    "Commune": "SALESCHES",
    "Site en activité": "Non",
    "Exploitation en eau": "Non",
    "Substances": null,
    "Produits": null,
    "Longitude": "3.584828",
    "Latitude": "50.203235",
    "Date de fin d'autorisation": null,
    "Nom": "CARTE DE LE CATEAU"
},
{
    "Identifiant": "34389",
    "Numéro S3IC": null,
    "Commune": "ESCARMAIN",
    "Site en activité": "Non",
    "Exploitation en eau": "Non",
    "Substances": null,
    "Produits": null,
    "Longitude": "3.552534",
    "Latitude": "50.210608",
    "Date de fin d'autorisation": null,
    "Nom": "CARTE DE LE CATEAU"
},
{
    "Identifiant": "34390",
    "Numéro S3IC": null,
    "Commune": "VERTAIN",
    "Site en activité": "Non",
    "Exploitation en eau": "Non",
    "Substances": null,
    "Produits": null,
    "Longitude": "3.534312",
    "Latitude": "50.211972",
    "Date de fin d'autorisation": null,
    "Nom": "CARTE DE LE CATEAU"
},
{
    "Identifiant": "34393",
    "Numéro S3IC": null,
    "Commune": "VENDEGIES-AU-BOIS",
    "Site en activité": "Non",
    "Exploitation en eau": "Non",
    "Substances": null,
    "Produits": null,
    "Longitude": "3.563839",
    "Latitude": "50.167467",
    "Date de fin d'autorisation": null,
    "Nom": "CARTE DE LE CATEAU"
},
{
    "Identifiant": "34384",
    "Numéro S3IC": null,
    "Commune": "BEAUVOIS-EN-CAMBRESIS",
    "Site en activité": "Non",
    "Exploitation en eau": "Non",
    "Substances": null,
    "Produits": null,
    "Longitude": "3.39115",
    "Latitude": "50.139276",
    "Date de fin d'autorisation": null,
    "Nom": "CARTE DE LE CATEAU"
},
{
    "Identifiant": "35552",
    "Numéro S3IC": null,
    "Commune": "LE MENIL",
    "Site en activité": "Non",
    "Exploitation en eau": "Non",
    "Substances": null,
    "Produits": null,
    "Longitude": "6.80657",
    "Latitude": "47.916378",
    "Date de fin d'autorisation": null,
    "Nom": "CARTE DE REMIREMONT"
},
{
    "Identifiant": "34394",
    "Numéro S3IC": null,
    "Commune": "VENDEGIES-AU-BOIS",
    "Site en activité": "Non",
    "Exploitation en eau": "Non",
    "Substances": null,
    "Produits": null,
    "Longitude": "3.565381",
    "Latitude": "50.165967",
    "Date de fin d'autorisation": null,
    "Nom": "CARTE DE LE CATEAU"
},
{
    "Identifiant": "34395",
    "Numéro S3IC": null,
    "Commune": "FOREST-EN-CAMBRESIS",
    "Site en activité": "Non",
    "Exploitation en eau": "Non",
    "Substances": "Sables et graviers alluvionnaires",
    "Produits": "Granulat meuble divers",
    "Longitude": "3.575845",
    "Latitude": "50.160396",
    "Date de fin d'autorisation": null,
    "Nom": "CARTE DE LE CATEAU"
},
{
    "Identifiant": "34835",
    "Numéro S3IC": null,
    "Commune": "LAMORVILLE",
    "Site en activité": "Non",
    "Exploitation en eau": "Non",
    "Substances": null,
    "Produits": null,
    "Longitude": "5.631594",
    "Latitude": "48.971867",
    "Date de fin d'autorisation": null,
    "Nom": "CARTE DE VIGNEULLES-LES-HATTONCHATEL"
},
{
    "Identifiant": "34385",
    "Numéro S3IC": null,
    "Commune": "AVESNES-LES-AUBERT",
    "Site en activité": "Non",
    "Exploitation en eau": "Non",
    "Substances": "Silt, limon",
    "Produits": "Terre cuite",
    "Longitude": "3.392896",
    "Latitude": "50.188957",
    "Date de fin d'autorisation": null,
    "Nom": "CARTE DE LE CATEAU"
},
{
    "Identifiant": "34388",
    "Numéro S3IC": null,
    "Commune": "ROMERIES",
    "Site en activité": "Non",
    "Exploitation en eau": "Non",
    "Substances": null,
    "Produits": null,
    "Longitude": "3.559",
    "Latitude": "50.198818",
    "Date de fin d'autorisation": null,
    "Nom": "CARTE DE LE CATEAU"
},
{
    "Identifiant": "34397",
    "Numéro S3IC": null,
    "Commune": "LE CATEAU-CAMBRESIS",
    "Site en activité": "Non",
    "Exploitation en eau": "Non",
    "Substances": null,
    "Produits": null,
    "Longitude": "3.557993",
    "Latitude": "50.109933",
    "Date de fin d'autorisation": null,
    "Nom": "CARTE DE LE CATEAU"
},
{
    "Identifiant": "34387",
    "Numéro S3IC": null,
    "Commune": "ROMERIES",
    "Site en activité": "Non",
    "Exploitation en eau": "Non",
    "Substances": null,
    "Produits": null,
    "Longitude": "3.53413",
    "Latitude": "50.204318",
    "Date de fin d'autorisation": null,
    "Nom": "CARTE DE LE CATEAU"
},
{
    "Identifiant": "34386",
    "Numéro S3IC": null,
    "Commune": "BEVILLERS",
    "Site en activité": "Non",
    "Exploitation en eau": "Non",
    "Substances": "Calcaire",
    "Produits": null,
    "Longitude": "3.378114",
    "Latitude": "50.156031",
    "Date de fin d'autorisation": null,
    "Nom": "CARTE DE LE CATEAU"
},
{
    "Identifiant": "34278",
    "Numéro S3IC": null,
    "Commune": "HESTRUD",
    "Site en activité": "Non",
    "Exploitation en eau": "Non",
    "Substances": null,
    "Produits": null,
    "Longitude": "4.143916",
    "Latitude": "50.203052",
    "Date de fin d'autorisation": null,
    "Nom": "CARTE DE TRELON"
},
{
    "Identifiant": "34398",
    "Numéro S3IC": null,
    "Commune": "SAINT-SOUPLET",
    "Site en activité": "Non",
    "Exploitation en eau": "Non",
    "Substances": null,
    "Produits": null,
    "Longitude": "3.540548",
    "Latitude": "50.056704",
    "Date de fin d'autorisation": null,
    "Nom": "CARTE DE LE CATEAU"
},
{
    "Identifiant": "34296",
    "Numéro S3IC": null,
    "Commune": "GENNES-IVERGNY",
    "Site en activité": "Non",
    "Exploitation en eau": "Non",
    "Substances": "Craie",
    "Produits": "Agriculture",
    "Longitude": "2.061463",
    "Latitude": "50.282505",
    "Date de fin d'autorisation": null,
    "Nom": "CARTE DE HESDIN"
},
{
    "Identifiant": "34399",
    "Numéro S3IC": null,
    "Commune": "SAINT-SOUPLET",
    "Site en activité": "Non",
    "Exploitation en eau": "Non",
    "Substances": "Calcaire",
    "Produits": "Chaux",
    "Longitude": "3.498189",
    "Latitude": "50.058158",
    "Date de fin d'autorisation": null,
    "Nom": "CARTE DE LE CATEAU"
},
{
    "Identifiant": "34400",
    "Numéro S3IC": null,
    "Commune": "BUSIGNY",
    "Site en activité": "Non",
    "Exploitation en eau": "Non",
    "Substances": null,
    "Produits": null,
    "Longitude": "3.473457",
    "Latitude": "50.040888",
    "Date de fin d'autorisation": null,
    "Nom": "CARTE DE LE CATEAU"
},
{
    "Identifiant": "35462",
    "Numéro S3IC": null,
    "Commune": "SAPOIS",
    "Site en activité": "Non",
    "Exploitation en eau": "Non",
    "Substances": null,
    "Produits": null,
    "Longitude": "6.742204",
    "Latitude": "48.020043",
    "Date de fin d'autorisation": null,
    "Nom": "CARTE DE REMIREMONT"
},
{
    "Identifiant": "34584",
    "Numéro S3IC": null,
    "Commune": "FLAUMONT-WAUDRECHIES",
    "Site en activité": "Non",
    "Exploitation en eau": "Non",
    "Substances": null,
    "Produits": null,
    "Longitude": "3.957377",
    "Latitude": "50.120515",
    "Date de fin d'autorisation": null,
    "Nom": "CARTE DE TRELON"
},
{
    "Identifiant": "34341",
    "Numéro S3IC": null,
    "Commune": "SAINT-GEORGES",
    "Site en activité": "Non",
    "Exploitation en eau": "Non",
    "Substances": null,
    "Produits": null,
    "Longitude": "2.098469",
    "Latitude": "50.351496",
    "Date de fin d'autorisation": null,
    "Nom": "CARTE DE HESDIN"
},
{
    "Identifiant": "34357",
    "Numéro S3IC": null,
    "Commune": "MARCONNELLE",
    "Site en activité": "Non",
    "Exploitation en eau": "Non",
    "Substances": null,
    "Produits": null,
    "Longitude": "2.027148",
    "Latitude": "50.370238",
    "Date de fin d'autorisation": null,
    "Nom": "CARTE DE HESDIN"
},
{
    "Identifiant": "34374",
    "Numéro S3IC": null,
    "Commune": "LIGNY-EN-CAMBRESIS",
    "Site en activité": "Non",
    "Exploitation en eau": "Non",
    "Substances": null,
    "Produits": null,
    "Longitude": "3.332602",
    "Latitude": "50.110803",
    "Date de fin d'autorisation": null,
    "Nom": "CARTE DE LE CATEAU"
},
{
    "Identifiant": "34401",
    "Numéro S3IC": null,
    "Commune": "HONNECHY",
    "Site en activité": "Non",
    "Exploitation en eau": "Non",
    "Substances": null,
    "Produits": null,
    "Longitude": "3.4596",
    "Latitude": "50.063328",
    "Date de fin d'autorisation": null,
    "Nom": "CARTE DE LE CATEAU"
},
{
    "Identifiant": "34402",
    "Numéro S3IC": null,
    "Commune": "HONNECHY",
    "Site en activité": "Non",
    "Exploitation en eau": "Non",
    "Substances": null,
    "Produits": null,
    "Longitude": "3.478784",
    "Latitude": "50.06118",
    "Date de fin d'autorisation": null,
    "Nom": "CARTE DE LE CATEAU"
},
{
    "Identifiant": "34403",
    "Numéro S3IC": null,
    "Commune": "HONNECHY",
    "Site en activité": "Non",
    "Exploitation en eau": "Non",
    "Substances": null,
    "Produits": null,
    "Longitude": "3.484755",
    "Latitude": "50.066178",
    "Date de fin d'autorisation": null,
    "Nom": "CARTE DE LE CATEAU"
},
{
    "Identifiant": "34406",
    "Numéro S3IC": null,
    "Commune": "MARETZ",
    "Site en activité": "Non",
    "Exploitation en eau": "Non",
    "Substances": null,
    "Produits": null,
    "Longitude": "3.40589",
    "Latitude": "50.050122",
    "Date de fin d'autorisation": null,
    "Nom": "CARTE DE LE CATEAU"
},
{
    "Identifiant": "34407",
    "Numéro S3IC": null,
    "Commune": "ELINCOURT",
    "Site en activité": "Non",
    "Exploitation en eau": "Non",
    "Substances": null,
    "Produits": null,
    "Longitude": "3.390892",
    "Latitude": "50.050095",
    "Date de fin d'autorisation": null,
    "Nom": "CARTE DE LE CATEAU"
},
{
    "Identifiant": "34409",
    "Numéro S3IC": null,
    "Commune": "CLARY",
    "Site en activité": "Non",
    "Exploitation en eau": "Non",
    "Substances": null,
    "Produits": null,
    "Longitude": "3.398433",
    "Latitude": "50.065341",
    "Date de fin d'autorisation": null,
    "Nom": "CARTE DE LE CATEAU"
},
{
    "Identifiant": "34411",
    "Numéro S3IC": null,
    "Commune": "CLARY",
    "Site en activité": "Non",
    "Exploitation en eau": "Non",
    "Substances": null,
    "Produits": null,
    "Longitude": "3.384126",
    "Latitude": "50.08014",
    "Date de fin d'autorisation": null,
    "Nom": "CARTE DE LE CATEAU"
},
{
    "Identifiant": "34412",
    "Numéro S3IC": null,
    "Commune": "CAULLERY",
    "Site en activité": "Non",
    "Exploitation en eau": "Non",
    "Substances": null,
    "Produits": null,
    "Longitude": "3.374028",
    "Latitude": "50.080226",
    "Date de fin d'autorisation": null,
    "Nom": "CARTE DE LE CATEAU"
},
{
    "Identifiant": "34413",
    "Numéro S3IC": null,
    "Commune": "MONTIGNY-EN-CAMBRESIS",
    "Site en activité": "Non",
    "Exploitation en eau": "Non",
    "Substances": null,
    "Produits": null,
    "Longitude": "3.413353",
    "Latitude": "50.091361",
    "Date de fin d'autorisation": null,
    "Nom": "CARTE DE LE CATEAU"
},
{
    "Identifiant": "34415",
    "Numéro S3IC": null,
    "Commune": "SOLESMES",
    "Site en activité": "Non",
    "Exploitation en eau": "Non",
    "Substances": null,
    "Produits": null,
    "Longitude": "3.501265",
    "Latitude": "50.170062",
    "Date de fin d'autorisation": null,
    "Nom": "CARTE DE LE CATEAU"
},
{
    "Identifiant": "34410",
    "Numéro S3IC": null,
    "Commune": "CLARY",
    "Site en activité": "Non",
    "Exploitation en eau": "Non",
    "Substances": null,
    "Produits": null,
    "Longitude": "3.392394",
    "Latitude": "50.067032",
    "Date de fin d'autorisation": null,
    "Nom": "CARTE DE LE CATEAU"
},
{
    "Identifiant": "34418",
    "Numéro S3IC": null,
    "Commune": "BRIASTRE",
    "Site en activité": "Non",
    "Exploitation en eau": "Non",
    "Substances": null,
    "Produits": null,
    "Longitude": "3.477486",
    "Latitude": "50.151447",
    "Date de fin d'autorisation": null,
    "Nom": "CARTE DE LE CATEAU"
},
{
    "Identifiant": "34419",
    "Numéro S3IC": null,
    "Commune": "VIESLY",
    "Site en activité": "Non",
    "Exploitation en eau": "Non",
    "Substances": null,
    "Produits": null,
    "Longitude": "3.45074",
    "Latitude": "50.144386",
    "Date de fin d'autorisation": null,
    "Nom": "CARTE DE LE CATEAU"
},
{
    "Identifiant": "34420",
    "Numéro S3IC": null,
    "Commune": "VIESLY",
    "Site en activité": "Non",
    "Exploitation en eau": "Non",
    "Substances": null,
    "Produits": null,
    "Longitude": "3.445261",
    "Latitude": "50.145949",
    "Date de fin d'autorisation": null,
    "Nom": "CARTE DE LE CATEAU"
},
{
    "Identifiant": "34422",
    "Numéro S3IC": null,
    "Commune": "VIESLY",
    "Site en activité": "Non",
    "Exploitation en eau": "Non",
    "Substances": null,
    "Produits": null,
    "Longitude": "3.441091",
    "Latitude": "50.151682",
    "Date de fin d'autorisation": null,
    "Nom": "CARTE DE LE CATEAU"
},
{
    "Identifiant": "34414",
    "Numéro S3IC": null,
    "Commune": "SOLESMES",
    "Site en activité": "Non",
    "Exploitation en eau": "Non",
    "Substances": "Sables et graviers alluvionnaires",
    "Produits": "Granulat meuble divers",
    "Longitude": "3.472516",
    "Latitude": "50.170044",
    "Date de fin d'autorisation": null,
    "Nom": "CARTE DE LE CATEAU"
},
{
    "Identifiant": "35581",
    "Numéro S3IC": null,
    "Commune": "LE VAL-D'AJOL",
    "Site en activité": "Non",
    "Exploitation en eau": "Non",
    "Substances": null,
    "Produits": null,
    "Longitude": "6.514226",
    "Latitude": "47.978204",
    "Date de fin d'autorisation": null,
    "Nom": "CARTE DE REMIREMONT"
},
{
    "Identifiant": "34432",
    "Numéro S3IC": null,
    "Commune": "MALINCOURT",
    "Site en activité": "Non",
    "Exploitation en eau": "Non",
    "Substances": "Calcaire",
    "Produits": "Chaux",
    "Longitude": "3.317039",
    "Latitude": "50.044524",
    "Date de fin d'autorisation": null,
    "Nom": "CARTE DE LE CATEAU"
},
{
    "Identifiant": "34433",
    "Numéro S3IC": null,
    "Commune": "BUSIGNY",
    "Site en activité": "Non",
    "Exploitation en eau": "Non",
    "Substances": null,
    "Produits": null,
    "Longitude": "3.451215",
    "Latitude": "50.044609",
    "Date de fin d'autorisation": null,
    "Nom": "CARTE DE LE CATEAU"
},
{
    "Identifiant": "34424",
    "Numéro S3IC": null,
    "Commune": "NEUVILLY",
    "Site en activité": "Non",
    "Exploitation en eau": "Non",
    "Substances": null,
    "Produits": null,
    "Longitude": "3.504947",
    "Latitude": "50.14427",
    "Date de fin d'autorisation": null,
    "Nom": "CARTE DE LE CATEAU"
},
{
    "Identifiant": "34439",
    "Numéro S3IC": null,
    "Commune": "WALINCOURT-SELVIGNY",
    "Site en activité": "Non",
    "Exploitation en eau": "Non",
    "Substances": "Craie",
    "Produits": "Agriculture",
    "Longitude": "3.31742",
    "Latitude": "50.075484",
    "Date de fin d'autorisation": null,
    "Nom": "CARTE DE LE CATEAU"
},
{
    "Identifiant": "34434",
    "Numéro S3IC": null,
    "Commune": "MARETZ",
    "Site en activité": "Non",
    "Exploitation en eau": "Non",
    "Substances": null,
    "Produits": null,
    "Longitude": "3.426505",
    "Latitude": "50.044171",
    "Date de fin d'autorisation": null,
    "Nom": "CARTE DE LE CATEAU"
},
{
    "Identifiant": "34417",
    "Numéro S3IC": null,
    "Commune": "BRIASTRE",
    "Site en activité": "Non",
    "Exploitation en eau": "Non",
    "Substances": null,
    "Produits": null,
    "Longitude": "3.477709",
    "Latitude": "50.156891",
    "Date de fin d'autorisation": null,
    "Nom": "CARTE DE LE CATEAU"
},
{
    "Identifiant": "34416",
    "Numéro S3IC": null,
    "Commune": "VIESLY",
    "Site en activité": "Non",
    "Exploitation en eau": "Non",
    "Substances": null,
    "Produits": null,
    "Longitude": "3.471355",
    "Latitude": "50.156147",
    "Date de fin d'autorisation": null,
    "Nom": "CARTE DE LE CATEAU"
},
{
    "Identifiant": "34426",
    "Numéro S3IC": null,
    "Commune": "WALINCOURT-SELVIGNY",
    "Site en activité": "Non",
    "Exploitation en eau": "Non",
    "Substances": null,
    "Produits": null,
    "Longitude": "3.332411",
    "Latitude": "50.061018",
    "Date de fin d'autorisation": null,
    "Nom": "CARTE DE LE CATEAU"
},
{
    "Identifiant": "34440",
    "Numéro S3IC": null,
    "Commune": "WALINCOURT-SELVIGNY",
    "Site en activité": "Non",
    "Exploitation en eau": "Non",
    "Substances": null,
    "Produits": null,
    "Longitude": "3.329452",
    "Latitude": "50.069063",
    "Date de fin d'autorisation": null,
    "Nom": "CARTE DE LE CATEAU"
},
{
    "Identifiant": "34427",
    "Numéro S3IC": null,
    "Commune": "WALINCOURT-SELVIGNY",
    "Site en activité": "Non",
    "Exploitation en eau": "Non",
    "Substances": null,
    "Produits": null,
    "Longitude": "3.320107",
    "Latitude": "50.063698",
    "Date de fin d'autorisation": null,
    "Nom": "CARTE DE LE CATEAU"
},
{
    "Identifiant": "34423",
    "Numéro S3IC": null,
    "Commune": "VIESLY",
    "Site en activité": "Non",
    "Exploitation en eau": "Non",
    "Substances": null,
    "Produits": null,
    "Longitude": "3.455463",
    "Latitude": "50.151523",
    "Date de fin d'autorisation": null,
    "Nom": "CARTE DE LE CATEAU"
},
{
    "Identifiant": "34430",
    "Numéro S3IC": null,
    "Commune": "DEHERIES",
    "Site en activité": "Non",
    "Exploitation en eau": "Non",
    "Substances": null,
    "Produits": null,
    "Longitude": "3.345322",
    "Latitude": "50.045953",
    "Date de fin d'autorisation": null,
    "Nom": "CARTE DE LE CATEAU"
},
{
    "Identifiant": "34431",
    "Numéro S3IC": null,
    "Commune": "MALINCOURT",
    "Site en activité": "Non",
    "Exploitation en eau": "Non",
    "Substances": null,
    "Produits": null,
    "Longitude": "3.320734",
    "Latitude": "50.048766",
    "Date de fin d'autorisation": null,
    "Nom": "CARTE DE LE CATEAU"
},
{
    "Identifiant": "34435",
    "Numéro S3IC": null,
    "Commune": "CREVECŒUR-SUR-L'ESCAUT",
    "Site en activité": "Non",
    "Exploitation en eau": "Non",
    "Substances": null,
    "Produits": null,
    "Longitude": "3.292433",
    "Latitude": "50.064075",
    "Date de fin d'autorisation": null,
    "Nom": "CARTE DE LE CATEAU"
},
{
    "Identifiant": "34425",
    "Numéro S3IC": null,
    "Commune": "BRIASTRE",
    "Site en activité": "Non",
    "Exploitation en eau": "Non",
    "Substances": null,
    "Produits": null,
    "Longitude": "3.505652",
    "Latitude": "50.154334",
    "Date de fin d'autorisation": null,
    "Nom": "CARTE DE LE CATEAU"
},
{
    "Identifiant": "34442",
    "Numéro S3IC": null,
    "Commune": "WALINCOURT-SELVIGNY",
    "Site en activité": "Non",
    "Exploitation en eau": "Non",
    "Substances": null,
    "Produits": null,
    "Longitude": "3.349918",
    "Latitude": "50.087645",
    "Date de fin d'autorisation": null,
    "Nom": "CARTE DE LE CATEAU"
},
{
    "Identifiant": "34441",
    "Numéro S3IC": null,
    "Commune": "WALINCOURT-SELVIGNY",
    "Site en activité": "Non",
    "Exploitation en eau": "Non",
    "Substances": "Sables et graviers alluvionnaires",
    "Produits": "Granulat meuble divers",
    "Longitude": "3.348111",
    "Latitude": "50.083556",
    "Date de fin d'autorisation": null,
    "Nom": "CARTE DE LE CATEAU"
},
{
    "Identifiant": "34443",
    "Numéro S3IC": null,
    "Commune": "WALINCOURT-SELVIGNY",
    "Site en activité": "Non",
    "Exploitation en eau": "Non",
    "Substances": null,
    "Produits": null,
    "Longitude": "3.344321",
    "Latitude": "50.082645",
    "Date de fin d'autorisation": null,
    "Nom": "CARTE DE LE CATEAU"
},
{
    "Identifiant": "34445",
    "Numéro S3IC": null,
    "Commune": "WALINCOURT-SELVIGNY",
    "Site en activité": "Non",
    "Exploitation en eau": "Non",
    "Substances": null,
    "Produits": null,
    "Longitude": "3.344387",
    "Latitude": "50.093523",
    "Date de fin d'autorisation": null,
    "Nom": "CARTE DE LE CATEAU"
},
{
    "Identifiant": "34438",
    "Numéro S3IC": null,
    "Commune": "WALINCOURT-SELVIGNY",
    "Site en activité": "Non",
    "Exploitation en eau": "Non",
    "Substances": null,
    "Produits": null,
    "Longitude": "3.323472",
    "Latitude": "50.074194",
    "Date de fin d'autorisation": null,
    "Nom": "CARTE DE LE CATEAU"
},
{
    "Identifiant": "34446",
    "Numéro S3IC": null,
    "Commune": "INCHY",
    "Site en activité": "Non",
    "Exploitation en eau": "Non",
    "Substances": null,
    "Produits": null,
    "Longitude": "3.473556",
    "Latitude": "50.124064",
    "Date de fin d'autorisation": null,
    "Nom": "CARTE DE LE CATEAU"
},
{
    "Identifiant": "34447",
    "Numéro S3IC": null,
    "Commune": "INCHY",
    "Site en activité": "Non",
    "Exploitation en eau": "Non",
    "Substances": "Calcaire",
    "Produits": "Chaux",
    "Longitude": "3.47856",
    "Latitude": "50.123046",
    "Date de fin d'autorisation": null,
    "Nom": "CARTE DE LE CATEAU"
},
{
    "Identifiant": "34437",
    "Numéro S3IC": null,
    "Commune": "WALINCOURT-SELVIGNY",
    "Site en activité": "Non",
    "Exploitation en eau": "Non",
    "Substances": null,
    "Produits": null,
    "Longitude": "3.32774",
    "Latitude": "50.07416",
    "Date de fin d'autorisation": null,
    "Nom": "CARTE DE LE CATEAU"
},
{
    "Identifiant": "34448",
    "Numéro S3IC": null,
    "Commune": "INCHY",
    "Site en activité": "Non",
    "Exploitation en eau": "Non",
    "Substances": "Calcaire",
    "Produits": "Chaux",
    "Longitude": "3.466447",
    "Latitude": "50.12907",
    "Date de fin d'autorisation": null,
    "Nom": "CARTE DE LE CATEAU"
},
{
    "Identifiant": "35603",
    "Numéro S3IC": null,
    "Commune": "CHAUVENCY-SAINT-HUBERT",
    "Site en activité": "Non",
    "Exploitation en eau": "Non",
    "Substances": "Calcaire",
    "Produits": null,
    "Longitude": "5.30929",
    "Latitude": "49.542774",
    "Date de fin d'autorisation": null,
    "Nom": "CARTE DE MONTMEDY"
},
{
    "Identifiant": "34450",
    "Numéro S3IC": null,
    "Commune": "LE CATEAU-CAMBRESIS",
    "Site en activité": "Non",
    "Exploitation en eau": "Non",
    "Substances": null,
    "Produits": null,
    "Longitude": "3.509378",
    "Latitude": "50.075501",
    "Date de fin d'autorisation": null,
    "Nom": "CARTE DE LE CATEAU"
},
{
    "Identifiant": "34449",
    "Numéro S3IC": null,
    "Commune": "LE CATEAU-CAMBRESIS",
    "Site en activité": "Non",
    "Exploitation en eau": "Non",
    "Substances": "Craie",
    "Produits": "Agriculture",
    "Longitude": "3.500046",
    "Latitude": "50.074569",
    "Date de fin d'autorisation": null,
    "Nom": "CARTE DE LE CATEAU"
},
{
    "Identifiant": "34452",
    "Numéro S3IC": null,
    "Commune": "LIGNY-EN-CAMBRESIS",
    "Site en activité": "Non",
    "Exploitation en eau": "Non",
    "Substances": null,
    "Produits": null,
    "Longitude": "3.362496",
    "Latitude": "50.106758",
    "Date de fin d'autorisation": null,
    "Nom": "CARTE DE LE CATEAU"
},
{
    "Identifiant": "34453",
    "Numéro S3IC": null,
    "Commune": "LIGNY-EN-CAMBRESIS",
    "Site en activité": "Non",
    "Exploitation en eau": "Non",
    "Substances": null,
    "Produits": null,
    "Longitude": "3.365223",
    "Latitude": "50.106778",
    "Date de fin d'autorisation": null,
    "Nom": "CARTE DE LE CATEAU"
},
{
    "Identifiant": "34454",
    "Numéro S3IC": null,
    "Commune": "CAUDRY",
    "Site en activité": "Non",
    "Exploitation en eau": "Non",
    "Substances": null,
    "Produits": null,
    "Longitude": "3.430764",
    "Latitude": "50.11153",
    "Date de fin d'autorisation": null,
    "Nom": "CARTE DE LE CATEAU"
},
{
    "Identifiant": "34451",
    "Numéro S3IC": null,
    "Commune": "LE CATEAU-CAMBRESIS",
    "Site en activité": "Non",
    "Exploitation en eau": "Non",
    "Substances": null,
    "Produits": null,
    "Longitude": "3.510536",
    "Latitude": "50.073894",
    "Date de fin d'autorisation": null,
    "Nom": "CARTE DE LE CATEAU"
},
{
    "Identifiant": "34456",
    "Numéro S3IC": null,
    "Commune": "CAUDRY",
    "Site en activité": "Non",
    "Exploitation en eau": "Non",
    "Substances": "Sables et graviers alluvionnaires",
    "Produits": "Granulat meuble divers",
    "Longitude": "3.431074",
    "Latitude": "50.101704",
    "Date de fin d'autorisation": null,
    "Nom": "CARTE DE LE CATEAU"
},
{
    "Identifiant": "34457",
    "Numéro S3IC": null,
    "Commune": "SAINT-BENIN",
    "Site en activité": "Non",
    "Exploitation en eau": "Non",
    "Substances": null,
    "Produits": null,
    "Longitude": "3.54069",
    "Latitude": "50.074253",
    "Date de fin d'autorisation": null,
    "Nom": "CARTE DE LE CATEAU"
},
{
    "Identifiant": "34458",
    "Numéro S3IC": null,
    "Commune": "REUMONT",
    "Site en activité": "Non",
    "Exploitation en eau": "Non",
    "Substances": null,
    "Produits": null,
    "Longitude": "3.480083",
    "Latitude": "50.08071",
    "Date de fin d'autorisation": null,
    "Nom": "CARTE DE LE CATEAU"
},
{
    "Identifiant": "34459",
    "Numéro S3IC": null,
    "Commune": "BERTRY",
    "Site en activité": "Non",
    "Exploitation en eau": "Non",
    "Substances": null,
    "Produits": null,
    "Longitude": "3.452972",
    "Latitude": "50.082643",
    "Date de fin d'autorisation": null,
    "Nom": "CARTE DE LE CATEAU"
},
{
    "Identifiant": "34461",
    "Numéro S3IC": null,
    "Commune": "TROISVILLES",
    "Site en activité": "Non",
    "Exploitation en eau": "Non",
    "Substances": null,
    "Produits": null,
    "Longitude": "3.486848",
    "Latitude": "50.096493",
    "Date de fin d'autorisation": null,
    "Nom": "CARTE DE LE CATEAU"
},
{
    "Identifiant": "34462",
    "Numéro S3IC": null,
    "Commune": "TROISVILLES",
    "Site en activité": "Non",
    "Exploitation en eau": "Non",
    "Substances": null,
    "Produits": null,
    "Longitude": "3.476639",
    "Latitude": "50.106194",
    "Date de fin d'autorisation": null,
    "Nom": "CARTE DE LE CATEAU"
},
{
    "Identifiant": "34463",
    "Numéro S3IC": null,
    "Commune": "CAUDRY",
    "Site en activité": "Non",
    "Exploitation en eau": "Non",
    "Substances": null,
    "Produits": null,
    "Longitude": "3.404116",
    "Latitude": "50.099754",
    "Date de fin d'autorisation": null,
    "Nom": "CARTE DE LE CATEAU"
},
{
    "Identifiant": "34465",
    "Numéro S3IC": null,
    "Commune": "FONTAINE-AU-PIRE",
    "Site en activité": "Non",
    "Exploitation en eau": "Non",
    "Substances": null,
    "Produits": null,
    "Longitude": "3.363391",
    "Latitude": "50.122187",
    "Date de fin d'autorisation": null,
    "Nom": "CARTE DE LE CATEAU"
},
{
    "Identifiant": "34466",
    "Numéro S3IC": null,
    "Commune": "FONTAINE-AU-PIRE",
    "Site en activité": "Non",
    "Exploitation en eau": "Non",
    "Substances": "Calcaire",
    "Produits": "Chaux",
    "Longitude": "3.375973",
    "Latitude": "50.116338",
    "Date de fin d'autorisation": null,
    "Nom": "CARTE DE LE CATEAU"
},
{
    "Identifiant": "34467",
    "Numéro S3IC": null,
    "Commune": "CAUDRY",
    "Site en activité": "Non",
    "Exploitation en eau": "Non",
    "Substances": null,
    "Produits": null,
    "Longitude": "3.40337",
    "Latitude": "50.11338",
    "Date de fin d'autorisation": null,
    "Nom": "CARTE DE LE CATEAU"
},
{
    "Identifiant": "34468",
    "Numéro S3IC": null,
    "Commune": "CAUDRY",
    "Site en activité": "Non",
    "Exploitation en eau": "Non",
    "Substances": "Silt, limon",
    "Produits": "Terre cuite",
    "Longitude": "3.398483",
    "Latitude": "50.126119",
    "Date de fin d'autorisation": null,
    "Nom": "CARTE DE LE CATEAU"
},
{
    "Identifiant": "34471",
    "Numéro S3IC": null,
    "Commune": "SAILLY-LEZ-CAMBRAI",
    "Site en activité": "Non",
    "Exploitation en eau": "Non",
    "Substances": null,
    "Produits": null,
    "Longitude": "3.182483",
    "Latitude": "50.189334",
    "Date de fin d'autorisation": null,
    "Nom": "CARTE DE CAMBRAI"
},
{
    "Identifiant": "35626",
    "Numéro S3IC": null,
    "Commune": "BARBAS",
    "Site en activité": "Non",
    "Exploitation en eau": "Non",
    "Substances": "Calcaire",
    "Produits": "Concassé de roche calcaire",
    "Longitude": "6.841633",
    "Latitude": "48.579543",
    "Date de fin d'autorisation": null,
    "Nom": "CARTE DE CIREY-SUR-VEZOUZE"
},
{
    "Identifiant": "34472",
    "Numéro S3IC": null,
    "Commune": "TILLOY-LEZ-CAMBRAI",
    "Site en activité": "Non",
    "Exploitation en eau": "Non",
    "Substances": null,
    "Produits": null,
    "Longitude": "3.225293",
    "Latitude": "50.193618",
    "Date de fin d'autorisation": null,
    "Nom": "CARTE DE CAMBRAI"
},
{
    "Identifiant": "34474",
    "Numéro S3IC": null,
    "Commune": "MARCOING",
    "Site en activité": "Non",
    "Exploitation en eau": "Non",
    "Substances": "Sables et graviers alluvionnaires",
    "Produits": null,
    "Longitude": "3.169203",
    "Latitude": "50.130742",
    "Date de fin d'autorisation": null,
    "Nom": "CARTE DE CAMBRAI"
},
{
    "Identifiant": "34475",
    "Numéro S3IC": null,
    "Commune": "MARCOING",
    "Site en activité": "Non",
    "Exploitation en eau": "Non",
    "Substances": null,
    "Produits": null,
    "Longitude": "3.167667",
    "Latitude": "50.12576",
    "Date de fin d'autorisation": null,
    "Nom": "CARTE DE CAMBRAI"
},
{
    "Identifiant": "34476",
    "Numéro S3IC": null,
    "Commune": "MASNIERES",
    "Site en activité": "Non",
    "Exploitation en eau": "Non",
    "Substances": null,
    "Produits": null,
    "Longitude": "3.214106",
    "Latitude": "50.11941",
    "Date de fin d'autorisation": null,
    "Nom": "CARTE DE CAMBRAI"
},
{
    "Identifiant": "34477",
    "Numéro S3IC": null,
    "Commune": "MASNIERES",
    "Site en activité": "Non",
    "Exploitation en eau": "Non",
    "Substances": null,
    "Produits": null,
    "Longitude": "3.218202",
    "Latitude": "50.108947",
    "Date de fin d'autorisation": null,
    "Nom": "CARTE DE CAMBRAI"
},
{
    "Identifiant": "34469",
    "Numéro S3IC": null,
    "Commune": "CROIX-CALUYAU",
    "Site en activité": "Non",
    "Exploitation en eau": "Non",
    "Substances": null,
    "Produits": null,
    "Longitude": "3.57672",
    "Latitude": "50.157437",
    "Date de fin d'autorisation": null,
    "Nom": "CARTE DE LE CATEAU"
},
{
    "Identifiant": "34473",
    "Numéro S3IC": null,
    "Commune": "RUMILLY-EN-CAMBRESIS",
    "Site en activité": "Non",
    "Exploitation en eau": "Non",
    "Substances": null,
    "Produits": null,
    "Longitude": "3.214194",
    "Latitude": "50.134828",
    "Date de fin d'autorisation": null,
    "Nom": "CARTE DE CAMBRAI"
},
{
    "Identifiant": "34478",
    "Numéro S3IC": null,
    "Commune": "METZ-EN-COUTURE",
    "Site en activité": "Non",
    "Exploitation en eau": "Non",
    "Substances": null,
    "Produits": null,
    "Longitude": "3.090838",
    "Latitude": "50.073284",
    "Date de fin d'autorisation": null,
    "Nom": "CARTE DE CAMBRAI"
},
{
    "Identifiant": "34479",
    "Numéro S3IC": null,
    "Commune": "VILLERS-PLOUICH",
    "Site en activité": "Non",
    "Exploitation en eau": "Non",
    "Substances": null,
    "Produits": null,
    "Longitude": "3.138488",
    "Latitude": "50.077919",
    "Date de fin d'autorisation": null,
    "Nom": "CARTE DE CAMBRAI"
},
{
    "Identifiant": "34480",
    "Numéro S3IC": null,
    "Commune": "GOUZEAUCOURT",
    "Site en activité": "Non",
    "Exploitation en eau": "Non",
    "Substances": null,
    "Produits": null,
    "Longitude": "3.135288",
    "Latitude": "50.060631",
    "Date de fin d'autorisation": null,
    "Nom": "CARTE DE CAMBRAI"
},
{
    "Identifiant": "34482",
    "Numéro S3IC": null,
    "Commune": "BANTOUZELLE",
    "Site en activité": "Non",
    "Exploitation en eau": "Non",
    "Substances": null,
    "Produits": null,
    "Longitude": "3.217326",
    "Latitude": "50.070414",
    "Date de fin d'autorisation": null,
    "Nom": "CARTE DE CAMBRAI"
},
{
    "Identifiant": "34484",
    "Numéro S3IC": null,
    "Commune": "TRESCAULT",
    "Site en activité": "Non",
    "Exploitation en eau": "Non",
    "Substances": null,
    "Produits": null,
    "Longitude": "3.091057",
    "Latitude": "50.086279",
    "Date de fin d'autorisation": null,
    "Nom": "CARTE DE CAMBRAI"
},
{
    "Identifiant": "34485",
    "Numéro S3IC": null,
    "Commune": "GONNELIEU",
    "Site en activité": "Non",
    "Exploitation en eau": "Non",
    "Substances": null,
    "Produits": null,
    "Longitude": "3.174232",
    "Latitude": "50.053039",
    "Date de fin d'autorisation": null,
    "Nom": "CARTE DE CAMBRAI"
},
{
    "Identifiant": "34481",
    "Numéro S3IC": null,
    "Commune": "LES RUES-DES-VIGNES",
    "Site en activité": "Non",
    "Exploitation en eau": "Non",
    "Substances": null,
    "Produits": null,
    "Longitude": "3.232559",
    "Latitude": "50.082921",
    "Date de fin d'autorisation": null,
    "Nom": "CARTE DE CAMBRAI"
},
{
    "Identifiant": "34488",
    "Numéro S3IC": null,
    "Commune": "POIX-DU-NORD",
    "Site en activité": "Non",
    "Exploitation en eau": "Non",
    "Substances": null,
    "Produits": null,
    "Longitude": "3.622568",
    "Latitude": "50.195477",
    "Date de fin d'autorisation": null,
    "Nom": "CARTE DE AVESNES-SUR-HELPE"
},
{
    "Identifiant": "34486",
    "Numéro S3IC": null,
    "Commune": "YTRES",
    "Site en activité": "Non",
    "Exploitation en eau": "Non",
    "Substances": null,
    "Produits": null,
    "Longitude": "3.005112",
    "Latitude": "50.066527",
    "Date de fin d'autorisation": null,
    "Nom": "CARTE DE CAMBRAI"
},
{
    "Identifiant": "34489",
    "Numéro S3IC": null,
    "Commune": "ENGLEFONTAINE",
    "Site en activité": "Non",
    "Exploitation en eau": "Non",
    "Substances": null,
    "Produits": null,
    "Longitude": "3.627664",
    "Latitude": "50.192957",
    "Date de fin d'autorisation": null,
    "Nom": "CARTE DE AVESNES-SUR-HELPE"
},
{
    "Identifiant": "34490",
    "Numéro S3IC": null,
    "Commune": "AMPLIER",
    "Site en activité": "Non",
    "Exploitation en eau": "Non",
    "Substances": null,
    "Produits": null,
    "Longitude": "2.399058",
    "Latitude": "50.142961",
    "Date de fin d'autorisation": null,
    "Nom": "CARTE DE DOULLENS"
},
{
    "Identifiant": "35647",
    "Numéro S3IC": null,
    "Commune": "MONTREUX",
    "Site en activité": "Non",
    "Exploitation en eau": "Non",
    "Substances": null,
    "Produits": null,
    "Longitude": "6.875017",
    "Latitude": "48.53379",
    "Date de fin d'autorisation": null,
    "Nom": "DIGITALISATION CARTE IGN"
},
{
    "Identifiant": "34491",
    "Numéro S3IC": null,
    "Commune": "ORVILLE",
    "Site en activité": "Non",
    "Exploitation en eau": "Non",
    "Substances": null,
    "Produits": null,
    "Longitude": "2.424866",
    "Latitude": "50.144617",
    "Date de fin d'autorisation": null,
    "Nom": "CARTE DE DOULLENS"
},
{
    "Identifiant": "34492",
    "Numéro S3IC": null,
    "Commune": "ORVILLE",
    "Site en activité": "Non",
    "Exploitation en eau": "Non",
    "Substances": "Sables et graviers alluvionnaires",
    "Produits": "Granulat meuble divers",
    "Longitude": "2.414748",
    "Latitude": "50.142609",
    "Date de fin d'autorisation": null,
    "Nom": "CARTE DE DOULLENS"
},
{
    "Identifiant": "34493",
    "Numéro S3IC": null,
    "Commune": "FAMECHON",
    "Site en activité": "Non",
    "Exploitation en eau": "Non",
    "Substances": null,
    "Produits": null,
    "Longitude": "2.469916",
    "Latitude": "50.138255",
    "Date de fin d'autorisation": null,
    "Nom": "CARTE DE DOULLENS"
},
{
    "Identifiant": "34494",
    "Numéro S3IC": null,
    "Commune": "BERLAIMONT",
    "Site en activité": "Non",
    "Exploitation en eau": "Non",
    "Substances": null,
    "Produits": null,
    "Longitude": "3.795677",
    "Latitude": "50.196764",
    "Date de fin d'autorisation": null,
    "Nom": "CARTE DE AVESNES-SUR-HELPE"
},
{
    "Identifiant": "34496",
    "Numéro S3IC": null,
    "Commune": "LOCQUIGNOL",
    "Site en activité": "Non",
    "Exploitation en eau": "Non",
    "Substances": "Sables et graviers alluvionnaires",
    "Produits": "Granulat meuble divers",
    "Longitude": "3.670456",
    "Latitude": "50.159341",
    "Date de fin d'autorisation": null,
    "Nom": "CARTE DE AVESNES-SUR-HELPE"
},
{
    "Identifiant": "34495",
    "Numéro S3IC": null,
    "Commune": "JOLIMETZ",
    "Site en activité": "Non",
    "Exploitation en eau": "Non",
    "Substances": "Silt, limon",
    "Produits": "Terre cuite",
    "Longitude": "3.677488",
    "Latitude": "50.218314",
    "Date de fin d'autorisation": null,
    "Nom": "CARTE DE AVESNES-SUR-HELPE"
},
{
    "Identifiant": "34497",
    "Numéro S3IC": null,
    "Commune": "MAROILLES",
    "Site en activité": "Non",
    "Exploitation en eau": "Non",
    "Substances": null,
    "Produits": null,
    "Longitude": "3.76675",
    "Latitude": "50.146445",
    "Date de fin d'autorisation": null,
    "Nom": "CARTE DE AVESNES-SUR-HELPE"
},
{
    "Identifiant": "34501",
    "Numéro S3IC": "0007000007",
    "Commune": "BACHANT",
    "Site en activité": "Non",
    "Exploitation en eau": "Non",
    "Substances": null,
    "Produits": null,
    "Longitude": "3.872996",
    "Latitude": "50.206094",
    "Date de fin d'autorisation": null,
    "Nom": "Carrières Boschetti"
},
{
    "Identifiant": "34503",
    "Numéro S3IC": null,
    "Commune": "BACHANT",
    "Site en activité": "Non",
    "Exploitation en eau": "Non",
    "Substances": null,
    "Produits": null,
    "Longitude": "3.88022",
    "Latitude": "50.20073",
    "Date de fin d'autorisation": null,
    "Nom": "CARTE DE AVESNES-SUR-HELPE"
},